     3.04           OBSERVATION DATA    M: Mixed            RINEX VERSION / TYPE
RTKCONV-EX 2.5.0                        20251027 014030 UTC PGM / RUN BY / DATE 
format: u-blox UBX                                          COMMENT             
log: C:\Users\Anson Lam\Downloads\data lab\COM5___9600_25102COMMENT             
  7_013813.ubx                                              COMMENT             
                                                            MARKER NAME         
                                                            MARKER NUMBER       
                                                            MARKER TYPE         
                                                            OBSERVER / AGENCY   
                                                            REC # / TYPE / VERS 
                                                            ANT # / TYPE        
 -2418200.3667  5385779.3736  2405745.4908                  APPROX POSITION XYZ 
        0.0000        0.0000        0.0000                  ANTENNA: DELTA H/E/N
G    8 C1C L1C D1C S1C C2X L2X D2X S2X                      SYS / # / OBS TYPES 
R    8 C1C L1C D1C S1C C2C L2C D2C S2C                      SYS / # / OBS TYPES 
E    8 C1X L1X D1X S1X C7X L7X D7X S7X                      SYS / # / OBS TYPES 
J    8 C1C L1C D1C S1C C2X L2X D2X S2X                      SYS / # / OBS TYPES 
S    4 C1C L1C D1C S1C                                      SYS / # / OBS TYPES 
C    8 C2I L2I D2I S2I C7I L7I D7I S7I                      SYS / # / OBS TYPES 
  2025    10    27    01    38   35.9920000     GPS         TIME OF FIRST OBS   
  2025    10    27    01    40   17.9920000     GPS         TIME OF LAST OBS    
G L1C                                                       SYS / PHASE SHIFT   
G L2X  0.00000                                              SYS / PHASE SHIFT   
R L1C                                                       SYS / PHASE SHIFT   
R L2C                                                       SYS / PHASE SHIFT   
E L1X  0.00000                                              SYS / PHASE SHIFT   
E L7X  0.00000                                              SYS / PHASE SHIFT   
J L1C                                                       SYS / PHASE SHIFT   
J L2X  0.00000                                              SYS / PHASE SHIFT   
S L1C                                                       SYS / PHASE SHIFT   
C L2I                                                       SYS / PHASE SHIFT   
C L7I                                                       SYS / PHASE SHIFT   
  7 R06 -4 R07  5 R09 -2 R16 -1 R20  2 R21  4 R22 -3        GLONASS SLOT / FRQ #
 C1C    0.000 C1P    0.000 C2C    0.000 C2P    0.000        GLONASS COD/PHS/BIS 
                                                            END OF HEADER       
> 2025 10 27 01 38 35.9920000  0 38                     
S37  34214915.589   179800592.3803        -78.210          39.000  
G12  21095250.531                        1929.080          37.000    21095248.990    86381525.832        1501.723          38.000  
G23  18250018.927    95904491.943        1269.274          44.000    18250014.304    74730761.197         988.012          36.000  
G24  18702245.682                       -2462.885          40.000    18702243.703                       -1919.320          35.000  
S28  35037499.075   184123293.3313        -72.996          47.000  
C25  20797220.532                       -1210.170          44.000                                                                  
C13  34676635.367                         819.719          33.000    34676627.730                         632.924          31.000  
C41  21035148.906                1       -219.320          40.000                                                                  
C39  33726880.527   175624719.050         163.792          45.000                                                                  
C09  35200244.720                         646.088          40.000    35200236.338   141736757.7611        499.142          43.000  
C10  37644705.868                        -981.531          31.000    37644702.601   151579620.5582       -758.219          37.000  
R16  18780748.849                1       -861.750          44.000    18780748.019                1       -670.513          38.000  
R09  18323595.424                        2748.907          42.000    18323592.911    76103186.609        2138.696          43.000  
R20  21628522.570                       -4136.360          26.000                                                                  
R21  18987692.529                1      -3119.394          44.000    18987690.189                1      -2426.329          37.000  
R06  19040791.520                         -93.045          28.000                                                                  
R22  19366925.248                         777.297          31.000                                                                  
J07  34214921.429                         -77.753          35.000    34214916.492   140104365.902         -61.742          40.000  
J03  33685037.698   177016060.9352        -30.342          44.000    33685035.439   137934587.312         -23.375          43.000  
J02  34893825.767                1        -64.059          36.000    34893826.378   142884404.607         -48.280          41.000  
E26  22220408.963                       -2376.170          37.000    22220418.791    89472419.724       -1820.794          44.000  
S29  34619497.519   181926684.0523        -76.611          43.000  
C08  34443218.401                         771.560          38.000    34443203.696   138688513.191         596.645          35.000  
C16  34323816.558   178733116.375         331.814          43.000    34323808.394   138207746.916         256.231          40.000  
R07  19768792.958                         977.426          22.000    19768786.553                         758.417          21.000  
E33  21500878.641                          90.868          23.000                                                                  
G18  18762064.239    98595280.576       -1961.378          44.000    18762061.875    76827496.338       -1528.874          41.000  
E29  22034285.836                        -857.162          36.000    22034283.821                        -655.810          34.000  
G10  20983413.027                        2731.336          31.000    20983424.916                        2134.474          19.000  
E27  24571469.529                        1395.394          42.000    24571474.147                        1069.773          40.000  
G28  22199913.800                        3311.292          26.000                                                                  
E19  22226796.331                         449.982          24.000    22226792.923                         346.452          23.000  
G32  21194947.500                        1107.879          25.000                                                                  
E21  25120368.661                        2122.409          40.000    25120376.639   101149343.486        1626.893          46.000  
C06                                                                  33989059.679   136859851.8201        403.524          39.000  
E07                                                                  24699370.380                       -1312.659          24.000  
G25                                                                  21012581.474                        2201.397          38.000  
J04                                                                  37070077.532   151795775.740         318.374          37.000  
> 2025 10 27 01 38 36.9920000  0 36                     
S37  34214929.938   179800667.606         -74.346          41.000  
G12  21094882.152   110854356.990        1934.486          38.000    21094881.236    86380020.273        1507.014          36.000  
G23  18249776.576    95903218.255        1272.317          43.000    18249771.951    74729768.659         991.874          38.000  
G24  18702713.715    98283425.330       -2460.208          39.000    18702711.769    76584474.327       -1917.611          35.000  
G25  21012043.261                        2830.219          37.000    21012043.058    86040881.585        2206.119          39.000  
S28  35037512.505   184123363.6492        -69.698          47.000  
C25  20797451.835   108297795.872       -1205.328          43.000                                                                  
C13  34676477.384   180569512.281         820.573          36.000    34676471.846   139627780.7962        635.420          34.000  
C41  21035190.056   109535758.3381       -214.716          40.000                                                                  
C39  33726848.407   175624552.242         166.972          43.000    33726625.561                         143.133          10.000  
C09  35200121.271   183296265.553         649.617          39.000    35200110.896   141736256.302         502.435          41.000  
C10  37644896.098   196026852.1553       -977.886          28.000    37644890.497   151580376.9572       -754.998          37.000  
R16  18780909.141   100324240.0761       -856.544          44.000    18780908.446    78029968.2151       -666.081          39.000  
R09  18323079.675    97844223.0323       2752.728          38.000    18323077.262    76101044.871        2142.212          45.000  
R21  18988275.090   101610104.7491      -3115.448          48.000    18988271.876    79030078.9251      -2422.513          34.000  
R06  19040808.475   101605402.1523        -89.904          27.000                                                                  
R22  19366781.380                         752.409          26.000                                                                  
J07  34214935.839   179800704.887         -74.369          38.000    34214930.700   140104424.490         -58.049          42.000  
J03  33685037.613   177016087.167         -23.865          37.000    33685040.226   137934607.700         -20.203          42.000  
J02  34893836.843   183368384.7551        -56.101          36.000    34893837.331   142884449.311         -42.876          42.000  
E26  22220874.865   116771487.952       -2370.864          40.000    22220870.950    89474237.345       -1817.307          44.000  
S29  34619511.718   181926757.5442        -73.151          45.000  
C08  34443069.325   179354099.540         775.845          38.000    34443054.688   138687913.145         599.158          38.000  
C16  34323752.112   178732781.162         335.898          44.000    34323744.139   138207487.758         258.975          40.000  
R07  19768611.874                         977.843          28.000    19768606.457                         771.928          21.000  
E33  21500861.972                          81.358          22.000                                                                  
G18  18762437.193    98597239.751       -1958.740          47.000    18762434.518    76829022.870       -1526.386          40.000  
E29  22034447.896   115791847.358        -854.010          38.000    22034445.814    88723583.745        -652.230          35.000  
E27  24571204.922   129122516.296        1401.846          42.000    24571207.610    98938064.411        1074.369          43.000  
E19  22226718.031                         457.624          21.000    22226705.504                         354.909          20.000  
G32  21194771.930                        1109.802          25.000                                                                  
E21  25119982.276   132006300.237        2129.514          32.000    25119971.243   101147713.148        1631.761          47.000  
C06                                                                  33988958.915   136859445.876         406.223          42.000  
E07                                                                  24699695.887                       -1305.550          23.000  
G10                                                                  20982904.994                        2131.810          18.000  
J04                                                                  37069998.761   151795453.479         321.742          38.000  
> 2025 10 27 01 38 37.9920000  0 38                     
S37  34214944.050   179800741.449         -74.284          41.000  
G12  21094513.684   110852424.398        1929.899          30.000    21094513.356    86378514.131        1505.949          36.000  
G23  18249534.105    95901944.007        1273.989          42.000    18249529.476    74728775.815         992.835          35.000  
G24  18703181.644    98285884.382       -2459.625          39.000    18703179.691    76586390.426       -1916.441          35.000  
G25  21011503.080   110416201.5603       2830.423          39.000    21011503.262    86038676.336        2204.742          42.000  
S28  35037525.622   184123432.524         -69.711          47.000  
C25  20797683.164   108299001.188       -1205.903          42.000                                                                  
C13  34676319.183   180568688.739         823.021          33.000    34676313.078   139627144.0912        636.251          31.000  
C41  21035231.160   109535972.698        -214.367          39.000                                                                  
C39  33726816.013   175624384.372         166.660          44.000                                                                  
C09  35199996.400   183295615.674         648.893          41.000    35199986.005   141735753.777         501.187          38.000  
C10  37645081.528   196027828.5972       -977.006          33.000    37645078.711   151581131.9802       -755.321          36.000  
R16  18781069.559   100325096.652        -857.494          42.000    18781068.742    78030634.436        -666.843          39.000  
R09  18322563.781    97841468.7162       2752.435          40.000    18322561.597    76098902.598        2141.998          43.000  
R20  21630060.638   115665654.3083      -4125.497          31.000                                                                  
R21  18988857.365   101613219.956       -3116.052          46.000    18988855.304    79032501.862       -2424.265          37.000  
R06  19040823.679   101605489.1782        -87.641          27.000                                                                  
R22  19366630.707                         781.938          27.000                                                                  
J07  34214950.559   179800778.757         -74.419          37.000    34214944.810   140104482.092         -58.533          42.000  
J03  33685045.574   177016112.114         -25.613          43.000    33685044.878   137934627.098         -20.526          44.000  
J02  34893847.489   183368440.892         -57.357          37.000    34893848.175   142884493.254         -44.354          42.000  
E26  22221321.059   116773858.915       -2372.264          42.000    22221322.045    89476054.032       -1817.359          45.000  
S29  34619525.565   181926829.566         -73.291          45.000  
C08  34442920.168   179353322.782         776.480          38.000    34442905.613   138687312.451         600.541          38.000  
C16  34323687.640   178732444.888         335.264          45.000    34323679.512   138207227.662         259.305          38.000  
R07  19768430.245                         987.792          22.000    19768425.117                         759.689          21.000  
E33  21500840.996                          96.125          21.000                                                                  
G18  18762809.795    98599197.978       -1959.459          43.000    18762807.097    76830548.747       -1527.106          38.000  
E29  22034609.808   115792698.307        -851.359          36.000    22034607.802    88724235.799        -652.785          34.000  
G10  20982370.579                        2740.112          25.000    20982382.687                        2128.781          19.000  
E27  24570936.665   129121114.111        1401.370          42.000    24570940.627    98936990.002        1074.212          43.000  
G28  22198651.404                        3320.435          25.000                                                                  
G32  21194572.405                        1107.729          24.000                                                                  
E21  25119559.552   132004171.120        2129.022          33.000    25119566.143   101146081.691        1631.295          47.000  
C06                                                                  33988857.962   136859038.995         405.741          42.000  
E19                                                                  22226620.923                         346.009          14.000  
E07                                                                  24700022.042                       -1309.321          24.000  
J04                                                                  37069919.881   151795130.562         322.023          38.000  
> 2025 10 27 01 38 38.9920000  0 36                     
S37  34214958.527   179800816.876         -77.289          40.000  
G12  21094146.274   110850493.068        1928.203          42.000    21094145.907    86377009.482        1501.999          36.000  
G23  18249292.062    95900671.452        1271.966          44.000    18249287.213    74727784.043         990.902          32.000  
G24  18703649.963    98288345.151       -2461.547          41.000    18703647.969    76588307.993       -1918.503          36.000  
G25  21010967.023   110413373.1922       2826.418          38.000    21010964.923    86036472.556        2202.070          40.000  
S28  35037538.887   184123502.712         -71.028          46.000  
C25  20797914.918   108300208.368       -1208.116          41.000                                                                  
C13  34676162.155   180567876.0203        821.011          38.000    34676155.123   139626508.3032        634.784          32.000  
C41  21035272.510   109536188.315        -215.704          39.000                                                                  
C39  33726784.230   175624217.964         166.054          46.000                                                                  
C09  35199872.010   183294967.377         647.066          35.000    35199861.538   141735252.500         500.356          42.000  
C10  37645271.037   196028806.865        -980.718          38.000    37645266.475   151581888.232        -757.336          37.000  
R16  18781230.424   100325955.468        -860.721          43.000    18781229.427    78031302.485        -669.003          39.000  
R09  18322048.523    97838715.9571       2750.305          44.000    18322046.440    76096762.035        2139.215          46.000  
R20  21630819.784   115669781.4352      -4127.760          35.000                                                                  
R21  18989440.059   101616337.072       -3117.186          38.000    18989437.764    79034926.331       -2426.304          37.000  
R06  19040841.580   101605578.9503        -87.903          27.000                                                                  
R22  19366484.225   103379607.8063        776.647          26.000                                                                  
J07  34214965.041   179800854.139         -76.922          37.000    34214959.117   140104540.769         -59.277          43.000  
J03  33685053.775   177016138.594         -27.464          41.000    33685049.792   137934647.871         -21.770          44.000  
J02  34893858.565   183368499.213         -60.385          37.000    34893859.484   142884538.692         -46.878          41.000  
E26  22221779.196   116776231.695       -2374.743          41.000    22221773.847    89477872.166       -1818.725          45.000  
S29  34619539.479   181926902.897         -75.055          45.000  
C08  34442771.030   179352547.135         775.957          37.000    34442756.817   138686712.782         599.607          41.000  
C16  34323623.218   178732110.082         334.014          43.000    34323615.232   138206968.766         257.552          41.000  
R07  19768247.112                         981.118          23.000    19768242.731                         756.217          19.000  
G18  18763182.729    98601158.123       -1962.121          40.000    18763180.030    76832076.163       -1528.804          39.000  
E29  22034772.004   115793550.420        -853.486          39.000    22034769.927    88724888.697        -653.219          39.000  
G10  20981847.966                        2736.418          25.000    20981859.470                        2138.378          19.000  
E27  24570669.660   129119713.792        1399.097          41.000    24570674.360    98935917.040        1072.082          46.000  
G28  22198023.757                        3316.404          31.000                                                                  
G32  21194370.225                        1105.175          25.000                                                                  
E21  25119152.473   132002043.611        2124.207          38.000    25119161.351   101144451.485        1628.826          44.000  
C06                                                                  33988757.258   136858633.292         404.258          38.000  
E07                                                                  24700347.223    99458061.9661      -1309.384          27.000  
J04                                                                  37069841.104   151794808.471         321.731          36.000  
> 2025 10 27 01 38 39.9920000  0 35                     
S37  34214973.319   179800893.661         -76.007          39.000  
G12  21093778.898   110848563.481        1930.604          40.000    21093778.610    86375505.903        1503.811          36.000  
G23  18249050.258    95899400.659        1271.912          44.000    18249045.249    74726793.844         991.531          33.000  
G24  18704118.696    98290807.933       -2461.674          40.000    18704116.695    76590226.967       -1917.574          34.000  
S28  35037552.520   184123574.199         -69.222          44.000  
C25  20798147.093   108301417.388       -1207.950          42.000                                                                  
C13  34676004.538   180567055.2572        823.613          40.000    34675998.222   139625873.5262        637.225          32.000  
C41  21035314.166   109536405.419        -215.212          40.000                                                                  
C39  33726752.712   175624053.255         166.527          45.000                                                                  
C09  35199747.651   183294320.587         648.590          37.000    35199737.417   141734752.304         501.089          41.000  
C10  37645458.116   196029785.707        -978.185          35.000    37645455.006   151582645.159        -756.368          38.000  
R16  18781391.734   100326816.472        -859.955          44.000    18781390.546    78031972.234        -669.785          36.000  
R09  18321533.613    97835965.583        2750.806          43.000    18321531.413    76094622.855        2139.056          43.000  
R20  21631581.067   115673909.6322      -4127.527          35.000                                                                  
R21  18990022.966                1      -3116.920          33.000    18990020.464    79037352.069       -2423.821          36.000  
R06  19040859.758   101605668.8292        -88.477          29.000                                                                  
R22  19366334.085   103378805.7763        777.308          40.000                                                                  
J07  34214978.209   179800930.889         -75.205          36.000    34214973.646   140104600.594         -58.760          42.000  
J03  33685056.699   177016166.712         -27.041          40.000    33685054.813   137934669.700         -21.078          44.000  
J02  34893869.863   183368558.354         -58.574          40.000    34893870.728   142884584.786         -45.695          40.000  
E26  22222222.231   116778606.268       -2373.608          38.000    22222225.746    89479691.556       -1818.608          45.000  
S29  34619553.787   181926977.629         -73.401          44.000  
C08  34442622.450   179351773.241         776.065          37.000    34442608.204   138686114.331         599.235          39.000  
C16  34323559.326   178731776.894         334.237          42.000    34323551.220   138206711.083         258.708          42.000  
R07  19768064.918                         976.463          25.000    19768061.444                         759.388          21.000  
G18  18763556.091    98603120.237       -1961.323          44.000    18763553.221    76833605.031       -1527.189          39.000  
E29  22034934.755   115794404.056        -851.148          42.000    22034932.664    88725542.871        -652.641          37.000  
G10  20981329.504   110257630.1383       2734.665          30.000    20981338.094                        2141.810          20.000  
E27  24570403.558   129118314.839        1399.723          42.000    24570407.924    98934845.172        1072.414          44.000  
G28  22197386.870   116648055.3023       3316.922          34.000                                                                  
E21  25118753.982   131999916.932        2127.987          39.000    25118756.486   101142821.967        1629.903          43.000  
C06                                                                  33988656.792   136858228.788         405.787          41.000  
E07                                                                  24700672.226    99459371.802       -1309.416          27.000  
G25                                                                  21010426.940    86034269.547        2203.078          41.000  
J04                                                                  37069762.643   151794487.568         322.269          37.000  
> 2025 10 27 01 38 40.9920000  0 37                     
S37  34214987.819   179800970.107         -76.907          41.000  
G12  21093411.506   110846634.068        1929.121          44.000    21093411.456    86374002.480        1502.900          38.000  
G23  18248808.433    95898129.796        1269.759          42.000    18248803.498    74725803.651         987.027          33.000  
G24  18704587.454    98293270.829       -2463.543          45.000    18704585.422    76592146.219       -1920.705          35.000  
S28  35037565.979   184123645.234         -71.395          44.000  
C25  20798379.279   108302626.847       -1209.941          43.000                                                                  
C13  34675844.815   180566234.0632        820.134          35.000    34675839.273   139625238.5412        634.950          35.000  
C41  21035355.660   109536622.410        -217.422          44.000                                                                  
C39  33726721.085   175623888.228         163.680          43.000                                                                  
C09  35199623.495   183293673.441         646.642          37.000    35199613.197   141734251.920         499.452          43.000  
C10  37645647.152   196030764.179        -977.535          35.000    37645642.472   151583401.789        -756.353          40.000  
R16  18781553.097   100327678.307        -862.689          45.000    18781551.951    78032642.598        -672.038          34.000  
R09  18321018.950    97833215.540        2749.079          43.000    18321016.614    76092483.907        2137.811          43.000  
R20  21632352.878   115677911.6323      -4127.322          26.000    21632406.057                       -3209.024          25.000  
R21  18990604.057   101622557.5973      -3119.346          33.000    18990603.419    79039777.911       -2426.516          38.000  
R06  19040874.925   101605757.7711        -89.752          31.000                                                                  
R22  19366186.793   103378019.3422        777.183          38.000                                                                  
J07  34214993.025   179801007.369         -76.559          36.000    34214988.118   140104660.196         -59.850          43.000  
J03  33685059.945   177016194.492         -28.844          40.000    33685060.033   137934691.395         -22.034          45.000  
J02  34893881.102   183368617.459         -58.783          43.000    34893882.140   142884630.881         -46.013          44.000  
E26  22222675.018   116780980.520       -2377.178          35.000    22222677.561    89481510.881       -1820.039          46.000  
S29  34619567.905   181927051.865         -74.878          39.000  
C08  34442473.798   179350998.926         774.354          40.000    34442459.595   138685515.584         599.206          40.000  
C16  34323495.357   178731443.433         332.381          44.000    34323487.306   138206453.274         257.151          43.000  
R07  19767882.376                         979.917          24.000    19767878.862                         766.368          22.000  
E33  21500786.574                          96.193          20.000                                                                  
G18  18763929.631    98605082.453       -1963.094          43.000    18763926.584    76835134.067       -1529.620          42.000  
E29  22035097.026   115795257.394        -853.545          39.000    22035094.943    88726196.728        -653.758          34.000  
G10  20980808.418   110254895.1292       2735.258          29.000    20980816.147                        2133.450          21.000  
E27  24570137.525   129116916.160        1398.430          42.000    24570141.953    98933773.461        1071.686          44.000  
G28  22196755.713   116644737.6933       3317.413          39.000                                                                  
E19  22226399.787                         465.436          17.000                                                                  
E21  25118348.571   131997789.940        2127.420          37.000    25118351.469   101141192.327        1629.604          42.000  
C06                                                                  33988556.236   136857824.016         403.778          42.000  
E07                                                                  24700997.810    99460681.637       -1309.492          25.000  
G25                                                                  21009888.888    86032066.464        2203.287          38.000  
J04                                                                  37069684.172   151794166.426         319.980          35.000  
> 2025 10 27 01 38 41.9920000  0 35                     
S37  34215002.293   179801045.768         -75.595          42.000  
G12  21093043.069   110844703.456        1931.708          40.000    21093044.061    86372498.010        1504.528          36.000  
G23  18248566.574    95896858.727        1270.378          42.000    18248561.621    74724813.084         991.080          36.000  
G24  18705056.069    98295733.351       -2462.904          40.000    18705054.060    76594064.997       -1919.118          37.000  
G25  21009349.189   110404874.3943       2828.354          36.000    21009350.667    86029862.483        2203.944          36.000  
S28  35037579.400   184123716.279         -71.178          47.000  
C25  20798611.295   108303835.631       -1209.514          41.000                                                                  
C13  34675687.973   180565412.4912        820.976          37.000    34675681.229   139624603.3122        633.796          30.000  
C41  21035397.089   109536838.520        -216.978          42.000                                                                  
C39  33726689.329   175623722.888         164.801          42.000                                                                  
C09  35199499.252   183293026.034         647.303          37.000    35199488.850   141733751.404         499.729          42.000  
C10  37645834.698   196031742.181        -978.472          31.000    37645830.459   151584158.073        -756.265          38.000  
R16  18781714.290   100328539.672        -862.518          40.000    18781713.246    78033312.344        -670.544          35.000  
R09  18320503.873    97830464.801        2750.134          40.000    18320501.493    76090344.504        2138.592          45.000  
R20  21633120.229   115682015.4722      -4127.824          27.000    21633182.142                       -3217.967          25.000  
R21  18991190.357                       -3120.023          38.000    18991186.295    79042203.882       -2426.023          38.000  
R06  19040892.376   101605846.600         -88.874          31.000                                                                  
R22  19366052.086   103377300.3073        773.867          28.000                                                                  
J07  34215007.443   179801083.016         -75.419          38.000    34215002.485   140104719.157         -58.925          42.000  
J03  33685065.173   177016221.690         -27.305          40.000    33685065.023   137934712.533         -21.520          44.000  
J02  34893892.118   183368675.166         -58.552          40.000    34893893.148   142884675.836         -45.314          38.000  
E26  22223126.983   116783354.605       -2374.010          34.000    22223129.346    89483329.922       -1819.269          45.000  
S29  34619582.192   181927126.030         -74.445          45.000  
C08  34442324.998   179350223.964         774.150          37.000    34442310.824   138684916.338         598.959          39.000  
C16  34323431.165   178731109.633         333.655          40.000    34323423.292   138206195.211         257.917          41.000  
R07  19767699.750                         975.959          25.000    19767696.914                         759.120          23.000  
G18  18764303.012    98607044.833       -1962.463          43.000    18764300.035    76836663.225       -1529.678          41.000  
E29  22035259.104   115796110.289        -853.436          40.000    22035257.144    88726850.209        -655.312          33.000  
G10  20980288.540                        2736.023          21.000    20980295.340                        2130.903          22.000  
E27  24569871.350   129115515.997        1399.409          43.000    24569875.524    98932700.636        1072.085          42.000  
G28  22196124.498   116641421.2472       3316.626          37.000                                                                  
E21  25117940.795   131995661.854        2127.090          37.000    25117946.452   101139561.588        1630.301          41.000  
C06                                                                  33988455.775   136857419.121         404.255          42.000  
E07                                                                  24701322.998    99461990.334       -1308.056          25.000  
J04                                                                  37069605.419   151793844.369         321.818          40.000  
> 2025 10 27 01 38 42.9920000  0 34                     
S37  34215016.974   179801122.698         -76.988          39.000  
G12  21092676.324   110842774.629        1929.105          36.000    21092677.026    86370995.135        1501.548          37.000  
G23  18248325.100    95895589.198        1268.193          43.000    18248320.083    74723823.901         988.502          36.000  
G24  18705525.038    98298197.738       -2466.150          40.000    18705523.130    76595985.284       -1921.801          36.000  
G25  21008811.479   110402047.4852       2826.498          38.000    21008812.627    86027659.610        2202.091          40.000  
S28  35037593.065   184123788.201         -72.818          46.000  
C25  20798843.691   108305046.309       -1211.916          39.000                                                                  
C13  34675530.348   180564592.0382        817.115          39.000    34675523.438                         632.707          30.000  
C41  21035438.806   109537055.999        -219.048          39.000                                                                  
C39  33726657.832   175623558.851         163.142          43.000                                                                  
C09  35199375.180   183292379.891         646.255          37.000    35199364.849   141733251.669         499.579          43.000  
C10  37646022.330   196032721.093        -979.039          34.000    37646018.506   151584915.026        -756.638          39.000  
R16  18781875.951   100329403.375        -866.945          42.000    18781874.951    78033984.245        -673.923          37.000  
R09  18319989.086    97827716.097        2748.969          42.000    18319986.722    76088206.614        2137.176          44.000  
R20  21633886.155   115686143.5532      -4129.831          31.000    21633958.918                       -3219.410          24.000  
R21  18991773.166   101628813.7903      -3120.095          35.000    18991769.493    79044631.125       -2428.886          38.000  
R06  19040911.234   101605936.779         -92.927          30.000                                                                  
J07  34215021.925   179801160.001         -77.886          35.000    34215017.301   140104779.180         -60.817          42.000  
J03  33685070.685   177016250.103         -27.974          37.000    33685070.463   137934734.748         -22.750          45.000  
J02  34893903.558   183368734.411         -60.780          36.000    34893904.356   142884721.828         -45.271          32.000  
E26  22223580.619   116785730.133       -2376.858          39.000    22223581.356    89485150.147       -1821.074          46.000  
S29  34619596.420   181927201.118         -75.903          45.000  
C08  34442176.533   179349450.352         772.246          39.000    34442162.329   138684318.137         596.645          39.000  
C16  34323367.499   178730777.215         330.973          43.000    34323359.473   138205938.129         255.720          41.000  
R07  19767518.073                         981.925          25.000    19767513.543                         753.168          23.000  
G18  18764676.776    98609008.898       -1964.713          40.000    18764673.814    76838193.675       -1531.730          42.000  
E29  22035421.817   115796964.350        -856.686          42.000    22035419.780    88727504.645        -656.384          36.000  
G10  20979769.087   110249430.5073       2733.056          29.000    20979775.982                        2130.398          23.000  
E27  24569605.361   129114117.769        1395.899          44.000    24569609.303    98931629.223        1069.443          41.000  
G28  22195495.291   116638114.9662       3314.083          37.000                                                                  
E21  25117536.574   131993534.876        2127.003          34.000    25117542.120   101137931.864        1628.741          48.000  
C06                                                                  33988355.508   136857015.183         403.816          39.000  
E07                                                                  24701649.831    99463300.216       -1310.263          27.000  
J04                                                                  37069526.988   151793523.432         319.575          38.000  
> 2025 10 27 01 38 43.9920000  0 33                     
S37  34215031.564   179801199.071         -74.950          40.000  
G12  21092309.240   110840844.844        1929.092          30.000    21092309.717    86369491.353        1504.999          36.000  
G23  18248083.351    95894319.017        1270.497          45.000    18248078.399    74722834.163         989.869          39.000  
G24  18705993.870    98300661.217       -2464.083          38.000    18705991.889    76597904.860       -1920.042          37.000  
G25  21008273.800   110399219.4981       2828.878          37.000    21008274.342    86025456.346        2204.868          41.000  
S28  35037606.756   184123860.277         -71.034          45.000  
C25  20799075.927   108306255.996       -1208.711          42.000                                                                  
C13  34675373.796   180563770.4712        821.635          44.000    34675366.063   139623330.0363        635.783          34.000  
C41  21035480.324   109537272.106        -216.348          39.000                                                                  
C39  33726626.220   175623394.561         165.053          42.000                                                                  
C09  35199251.191   183291734.036         647.225          38.000    35199240.929   141732752.193         500.442          43.000  
C10  37646210.132   196033700.239        -977.393          36.000    37646206.582   151585672.165        -755.942          39.000  
R16  18782037.473   100330266.407        -862.683          42.000    18782036.452    78034655.319        -671.500          39.000  
R09  18319474.401    97824967.289        2749.750          41.000    18319472.045    76086068.654        2138.971          46.000  
R20  21634654.785   115690221.3133      -4125.597          31.000    21634729.362                       -3209.974          25.000  
R21  18992357.778   101631935.2402      -3120.641          44.000    18992352.802    79047058.766       -2427.018          38.000  
R06  19040930.374   101606025.355         -88.691          28.000                                                                  
J07  34215036.418   179801236.358         -75.452          36.000    34215031.709   140104838.638         -57.905          40.000  
J03  33685076.217   177016278.332         -27.725          41.000    33685075.958   137934756.715         -21.420          44.000  
J02  34893914.687   183368792.802         -57.073          34.000    34893915.534   142884767.359         -43.868          35.000  
E26  22224032.712   116788105.743       -2374.689          39.000    22224033.208    89486970.381       -1819.427          43.000  
S29  34619610.840   181927276.344         -74.005          45.000  
C08  34442027.708   179348675.630         774.830          39.000    34442013.464   138683719.007         599.973          42.000  
C16  34323303.622   178730444.517         334.003          40.000    34323295.625   138205680.905         258.032          41.000  
R07  19767336.499                         980.265          25.000    19767331.041                         760.301          23.000  
G18  18765050.615    98610973.462       -1963.587          44.000    18765047.638    76839724.399       -1529.914          40.000  
E29  22035584.463   115797817.344        -852.111          45.000    22035582.267    88728158.188        -652.903          41.000  
G10  20979248.548   110246694.3913       2735.129          32.000    20979255.775                        2122.902          22.000  
E27  24569338.966   129112718.267        1401.736          39.000    24569343.112    98930556.882        1072.913          41.000  
G28  22194862.772   116634800.3082       3315.633          31.000                                                                  
E21  25117131.140   131991407.528        2129.583          34.000    25117137.123   101136301.678        1632.048          47.000  
C06                                                                  33988255.146   136856611.153         404.342          41.000  
J04                                                                  37069448.353   151793201.462         322.090          40.000  
> 2025 10 27 01 38 44.9920000  0 33                     
S37  34215045.894   179801275.020         -76.662          38.000  
G12  21091942.169   110838903.2733       1927.095          35.000    21091942.534    86367987.798        1503.104          39.000  
G23  18247841.674    95893048.866        1270.052          44.000    18247836.652    74721844.396         989.557          39.000  
G24  18706462.752    98303124.800       -2463.764          45.000    18706460.813    76599824.605       -1920.496          36.000  
G25  21007735.734   110396395.5173       2827.193          37.000    21007736.158    86023253.010        2203.619          38.000  
S28  35037620.443   184123931.768         -72.211          44.000  
C25  20799308.251   108307465.987       -1208.579          41.000                                                                  
C13  34675215.690   180562948.2151        821.890          42.000    34675207.867   139622694.546         636.209          39.000  
C41  21035521.785   109537488.146        -215.289          40.000                                                                  
C39  33726594.420   175623229.901         164.204          43.000                                                                  
C09  35199127.115   183291087.646         645.188          38.000    35199116.824   141732252.376         498.820          42.000  
C10  37646397.932   196034678.808        -979.433          35.000    37646394.577   151586428.876        -757.036          40.000  
R16  18782199.335   100331130.065        -863.808          41.000    18782198.115    78035327.059        -671.723          38.000  
R09  18318959.759    97822218.736        2747.669          42.000    18318957.341    76083930.858        2137.420          44.000  
R20  21635428.857                       -4127.671          25.000    21635499.994                       -3210.004          24.000  
R21  18992940.706   101635056.524       -3123.097          43.000    18992936.026    79049486.471       -2428.715          38.000  
R06  19040948.134   101606147.7033        -87.008          29.000                                                                  
J07  34215050.721   179801312.295         -76.721          34.000    34215046.272   140104897.890         -60.270          41.000  
J03  33685080.800   177016293.7763        -28.843          37.000    33685081.361   137934778.567         -22.725          44.000  
J02  34893926.032   183368851.310         -58.072          30.000    34893926.751   142884812.931         -47.002          31.000  
E26  22224485.559   116790481.143       -2376.897          41.000    22224484.832    89488790.585       -1820.831          41.000  
S29  34619625.165   181927351.091         -75.232          45.000  
C08  34441878.822   179347900.563         774.981          41.000    34441864.721   138683119.723         599.284          42.000  
C16  34323239.915   178730111.698         332.268          44.000    34323231.702   138205423.396         257.454          40.000  
R07  19767151.401   105815108.1973        978.686          29.000    19767151.189                         764.990          24.000  
G18  18765424.499    98612938.106       -1965.247          43.000    18765421.505    76841255.352       -1531.587          39.000  
E29  22035746.629   115798670.219        -852.515          45.000    22035744.665    88728811.608        -653.412          42.000  
G10  20978726.956                        2734.046          32.000    20978736.223                        2126.277          22.000  
E27  24569072.852   129111319.056        1397.802          42.000    24569076.608    98929484.659        1072.140          41.000  
G28  22194232.811   116631485.3352       3313.341          38.000                                                                  
E21  25116724.625   131989279.734        2126.802          37.000    25116731.883   101134671.355        1628.925          44.000  
C06                                                                  33988154.768   136856206.898         403.462          39.000  
J04                                                                  37069369.645   151792879.223         321.561          38.000  
> 2025 10 27 01 38 45.9920000  0 34                     
S37  34215060.350   179801351.343         -75.917          38.000  
G12  21091575.035   110836974.2812       1927.423          37.000    21091575.235    86366484.518        1503.622          34.000  
G23  18247599.746    95891778.001        1270.978          43.000    18247594.823    74720854.080         991.176          41.000  
G24  18706931.414    98305587.781       -2462.171          45.000    18706929.499    76601743.712       -1918.970          39.000  
G25  21007197.453   110393568.6412       2828.826          33.000    21007198.133    86021050.239        2203.695          36.000  
S28  35037634.214   184124003.664         -72.427          37.000  
C25  20799540.539   108308675.683       -1210.434          38.000                                                                  
C13  34675057.552   180562125.253         823.711          40.000    34675048.787   139622058.226         637.363          39.000  
C41  21035563.003   109537703.002        -213.955          42.000                                                                  
C39  33726562.833   175623065.381         164.479          40.000                                                                  
C09  35199003.151   183290442.098         645.038          35.000    35198992.928   141731753.188         499.862          37.000  
C10  37646586.022   196035658.193        -978.663          35.000    37646582.709   151587186.075        -755.530          33.000  
R16  18782361.067   100331993.684        -863.797          40.000    18782359.712    78035998.661        -670.976          40.000  
R09  18318445.195    97819471.104        2747.718          39.000    18318442.899    76081793.877        2137.152          42.000  
R20  21636198.369   115698475.2243      -4126.352          37.000    21636253.210    89987931.4823      -3209.020          31.000  
R21  18993522.569   101638178.426       -3117.622          27.000    18993519.676    79051915.121       -2429.277          29.000  
R06  19040962.581   101606234.5602        -85.292          32.000                                                                  
R22  19365505.998   103374385.4423        767.641          24.000                                                                  
J07  34215065.039   179801388.613         -75.979          34.000    34215060.802   140104957.240         -58.926          42.000  
J03  33685097.209   177016322.6672        -28.113          39.000    33685086.821   137934800.929         -21.949          43.000  
E26  22224937.127   116792857.689       -2375.524          42.000    22224937.209    89490611.355       -1819.622          42.000  
S29  34619639.501   181927426.093         -74.591          40.000  
C08  34441729.861   179347124.538         777.136          42.000    34441715.702   138682519.568         600.768          42.000  
C16  34323176.067   178729779.097         333.794          43.000    34323167.872   138205166.178         257.044          38.000  
R07  19766962.545   105814128.1352        981.294          36.000    19766967.328                         764.960          24.000  
G18  18765798.530    98614903.651       -1965.328          41.000    18765795.464    76842786.933       -1530.567          39.000  
E29  22035908.181   115799521.847        -850.213          44.000    22035906.512    88729464.147        -651.066          42.000  
G10  20978205.015   110241211.0333       2738.097          41.000    20978215.451                        2134.311          30.000  
E27  24568806.712   129109919.738        1399.189          42.000    24568810.275    98928412.548        1072.346          40.000  
G28  22193602.486   116628171.2842       3316.104          40.000                                                                  
E21  25116320.135   131987152.730        2128.574          31.000    25116327.202   101133041.586        1630.135          45.000  
C06                                                                  33988054.462   136855803.129         404.053          32.000  
J02                                                                  34893938.171   142884858.946         -46.928          31.000  
J04                                                                  37069290.564   151792556.214         323.909          40.000  
> 2025 10 27 01 38 46.9920000  0 33                     
S37  34215074.502   179801425.258         -71.381          40.000  
G12  21091207.672   110835043.0092       1932.415          38.000    21091207.756    86364979.654        1507.445          37.000  
G23  18247357.488    95890505.323        1274.892          43.000    18247352.593    74719862.377         993.051          42.000  
G24  18707399.838    98308049.041       -2458.053          44.000    18707397.880    76603661.594       -1915.019          41.000  
G25  21006658.910                        2832.265          29.000    21006659.766    86018845.585        2204.362          32.000  
S28  35037647.586   184124073.568         -67.176          37.000  
C25  20799772.522   108309883.456       -1207.008          40.000                                                                  
C13  34674899.116   180561300.270         828.324          42.000    34674891.287   139621420.310         640.918          39.000  
C41  21035603.754   109537915.749        -209.252          41.000                                                                  
C39  33726530.741   175622898.742         170.041          43.000                                                                  
C09  35198878.691   183289794.443         652.446          32.000    35198868.616   141731252.529         501.213          39.000  
C10  37646773.808   196036635.947        -977.698          39.000    37646770.463   151587942.127        -756.594          32.000  
R16  18782522.369   100332855.812        -860.828          45.000    18782521.165    78036669.302        -668.286          41.000  
R09  18317930.417    97816721.639        2752.618          39.000    18317928.074    76079655.349        2140.185          42.000  
R20  21636967.227   115702587.0072      -4127.863          24.000                                                                  
R21  18994102.099   101641276.5763      -3121.768          36.000    18994102.947    79054329.4243      -2426.521          33.000  
R06  19040978.897   101606311.5363        -82.244          34.000                                                                  
J07  34215079.142   179801462.521         -71.023          36.000    34215074.883   140105014.804         -53.511          36.000  
J03  33685097.244   177016349.1342        -23.635          40.000    33685091.885   137934821.481         -17.457          37.000  
J02  34893955.130   183368971.3113        -55.591          30.000    34893950.376                         -38.680          24.000  
E26  22225389.968   116795232.056       -2370.514          41.000    22225389.227    89492430.971       -1819.234          42.000  
S29  34619653.304   181927499.066         -70.496          36.000  
C08  34441580.393   179346346.274         781.644          38.000    34441566.292   138681917.829         603.598          42.000  
C16  34323111.557   178729444.238         338.044          39.000    34323103.651   138204907.372         261.884          38.000  
R07  19766767.381   105813146.695         982.257          41.000    19766780.955    82299098.0113        764.209          30.000  
G18  18766172.311    98616867.606       -1961.021          36.000    18766169.262    76844317.419       -1528.271          36.000  
E29  22036070.038   115800371.440        -846.092          44.000    22036068.421    88730115.185        -648.599          44.000  
G10  20977682.910   110238473.2922       2738.628          45.000    20977683.128    85900105.5481       2134.527          30.000  
E27  24568540.074   129108518.409        1402.696          37.000    24568543.429    98927338.789        1074.481          40.000  
G28  22192972.057                        3301.857          27.000                                                                  
C06                                                                  33987951.172   136855395.1953        404.564          35.000  
E21                                                                  25115922.091   101131410.036        1633.250          39.000  
J04                                                                  37069211.272   151792231.431         328.821          38.000  
> 2025 10 27 01 38 47.9920000  0 35                     
S37  34215088.515   179801498.709         -74.371          37.000  
G12  21090840.463   110833114.2383       1930.654          37.000    21090840.205    86363474.703        1505.841          36.000  
G23  18247115.575    95889234.053        1269.457          45.000    18247110.713    74718871.858         988.813          42.000  
G24  18707868.496    98310511.998       -2464.802          46.000    18707866.583    76605580.876       -1922.446          34.000  
G25  21006123.866   110387925.7363       2828.359          40.000    21006121.265    86016640.470        2204.932          37.000  
S28  35037660.894   184124143.379         -70.889          41.000  
C25  20800004.766   108311092.747       -1211.189          42.000                                                                  
C13  34674740.883   180560476.726         820.441          42.000    34674733.547   139620783.481         634.838          42.000  
C41  21035644.893   109538129.908        -216.009          42.000                                                                  
C39  33726498.824   175622732.428         164.532          40.000                                                                  
C09  35198754.305   183289146.660         647.599          35.000    35198744.188   141730756.9193        499.393          32.000  
C10  37646961.687                        -974.712          26.000    37646958.087   151588697.328        -755.280          37.000  
R16  18782684.128   100333719.622        -864.810          41.000    18782682.899    78037341.246        -673.036          41.000  
R09  18317414.811    97813972.5073       2748.633          36.000    18317413.286    76077516.880        2137.140          42.000  
R20  21637738.913   115706712.9572      -4125.854          37.000    21637779.412    89994278.7873      -3213.595          30.000  
R21  18994689.468   101644397.3812      -3121.296          37.000    18994688.057    79056756.8002      -2428.427          36.000  
R06  19040994.032   101606398.1372        -88.240          32.000                                                                  
R22  19365220.205                         765.055          25.000                                                                  
J07  34215093.329   179801535.972         -74.215          34.000    34215088.959   140105072.068         -56.936          36.000  
J03  33685101.582   177016374.9712        -22.116          40.000    33685096.707   137934841.618         -20.583          36.000  
J02  34893975.984   183369081.3893        -57.338          30.000    34893965.784   142884956.4171        -47.951          25.000  
E26  22225842.748   116797606.283       -2372.937          39.000    22225840.748    89494250.016       -1819.442          41.000  
S29  34619667.121   181927571.992         -74.091          40.000  
C08  34441431.212   179345569.310         774.594          41.000    34441417.065   138681316.922         600.265          44.000  
C16  34323047.364   178729109.581         333.323          41.000    34323039.476   138204648.659         258.066          40.000  
R07  19766577.299   105812166.768         978.801          44.000    19766590.765    82298335.8442        760.920          34.000  
G18  18766546.227    98618832.028       -1966.207          42.000    18766542.969    76845847.923       -1532.370          37.000  
E29  22036231.957   115801222.645        -853.670          43.000    22036230.282    88730767.333        -653.846          45.000  
G10  20977161.716   110235737.1502       2734.594          46.000    20977160.954    85897973.507        2129.408          35.000  
E27  24568273.272   129107117.623        1396.148          30.000    24568277.135    98926265.253        1073.371          41.000  
G28  22192338.768   116621526.7683       3314.850          38.000                                                                  
G32  21192489.335                        1107.534          26.000                                                                  
E21  25115527.767   131982988.7231       2133.615          34.000    25115516.853   101129777.546        1632.963          45.000  
C06                                                                  33987853.634   136855002.1412        403.018          38.000  
J04                                                                  37069132.082   151791907.208         322.700          40.000  
> 2025 10 27 01 38 48.9920000  0 33                     
S37  34215102.787   179801574.006         -75.236          39.000  
G12  21090473.328   110831183.7721       1929.259          41.000    21090472.885    86361970.982        1504.392          34.000  
G23  18246874.138    95887965.438        1267.312          45.000    18246869.273    74717883.256         988.084          40.000  
G24  18708337.774    98312977.604       -2465.097          43.000    18708335.714    76607502.058       -1921.747          39.000  
G25  21005583.426   110385085.4012       2830.222          36.000    21005582.857    86014436.113        2203.018          40.000  
S28  35037674.471   184124214.537         -72.461          44.000  
C25  20800237.541   108312304.791       -1211.397          41.000                                                                  
C13  34674583.066   180559655.171         821.146          42.000    34674575.334   139620148.164         635.980          43.000  
C41  21035686.553   109538346.188        -215.138          40.000                                                                  
C39  33726467.145   175622568.098         165.454          42.000                                                                  
C09  35198630.181   183288500.074         646.172          37.000    35198619.949   141730256.9522        499.477          39.000  
C10  37647149.690   196038587.6883       -977.375          32.000    37647145.734   151589452.691        -755.487          39.000  
R16  18782846.381   100334586.632        -864.803          40.000    18782845.181    78038015.522        -674.867          38.000  
R09  18316906.271    97811257.4302       2745.771          43.000    18316898.726    76075379.836        2136.920          41.000  
R20  21638511.335   115710844.3083      -4125.504          34.000    21638541.422    89997488.2312      -3210.405          29.000  
R21  18995272.746   101647540.5913      -3123.077          39.000    18995269.363    79059184.3333      -2429.397          36.000  
R06  19041008.704   101606486.840         -88.120          33.000                                                                  
J07  34215107.899   179801611.253         -74.869          34.000    34215103.256   140105130.774         -58.389          41.000  
J03  33685107.151   177016432.4383        -26.816          36.000    33685102.081   137934863.068         -21.703          44.000  
J02  34893997.518   183369194.2032        -60.906          33.000    34893985.123   142885003.301         -46.572          28.000  
E26  22226294.026   116799982.050       -2377.771          37.000    22226293.029    89496070.326       -1820.747          41.000  
S29  34619681.297   181927646.142         -74.249          42.000  
C08  34441282.426   179344794.420         774.590          41.000    34441268.302   138680717.830         599.469          45.000  
C16  34322983.524   178728776.886         331.989          40.000    34322975.622   138204391.322         257.090          41.000  
R07  19766394.240   105811188.467         977.172          44.000    19766404.742    82297575.014         759.927          33.000  
G18  18766920.404    98620798.107       -1966.318          41.000    18766917.174    76847380.018       -1532.513          38.000  
E29  22036394.426   115802075.800        -853.434          46.000    22036392.671    88731421.099        -653.739          44.000  
G10  20976642.200   110233002.7242       2733.665          46.000    20976638.539    85895842.819        2128.904          33.000  
E27  24568005.458   129105739.8351       1401.344          41.000    24568010.682    98925192.872        1074.139          40.000  
G28  22191705.628   116618211.489        3313.739          34.000                                                                  
E21  25115109.592   131980858.775        2135.553          30.000    25115111.565   101128145.581        1631.696          42.000  
C06                                                                  33987751.293   136854597.8992        403.621          40.000  
J04                                                                  37069053.225   151791584.583         322.640          42.000  
> 2025 10 27 01 38 49.9920000  0 35                     
S37  34215117.075   179801648.771         -74.787          37.000  
G12  21090105.977   110829253.264        1931.926          39.000    21090105.434    86360466.804        1502.598          34.000  
G23  18246632.793    95886697.075        1269.092          45.000    18246627.894    74716894.893         988.768          41.000  
G24  18708807.078    98315443.489       -2466.390          45.000    18708804.924    76609423.454       -1921.576          41.000  
G25  21005045.398   110382258.4933       2829.535          40.000    21005044.329    86012231.133        2202.501          36.000  
S28  35037688.139   184124286.258         -72.682          40.000  
C25  20800470.267   108313516.419       -1211.728          42.000                                                                  
C13  34674425.216   180558833.834         822.042          43.000    34674417.489   139619513.082         637.222          40.000  
C41  21035727.965   109538562.193        -214.993          43.000                                                                  
C39  33726435.697   175622404.074         163.575          42.000                                                                  
C09  35198505.970   183287853.700         646.092          36.000    35198495.840   141729757.1652        497.227          35.000  
C10  37647335.447   196039564.8482       -978.272          32.000    37647333.408   151590208.268        -756.813          37.000  
R16  18783008.544   100335453.590        -866.829          39.000    18783007.436    78038689.844        -673.663          42.000  
R09  18316392.270    97808509.9412       2747.888          42.000    18316384.220    76073242.899        2135.022          42.000  
R20  21639282.823   115714969.3423      -4127.014          29.000    21639309.515                       -3209.980          27.000  
R21  18995858.981   101650663.9402      -3125.745          38.000    18995854.179    79061613.5992      -2429.128          36.000  
R06  19041023.787   101606575.653         -86.952          32.000                                                                  
R22  19364934.346                         766.303          26.000                                                                  
J07  34215122.128   179801686.048         -74.367          34.000    34215117.417   140105189.062         -58.011          40.000  
J03  33685110.075   177016459.3562        -23.902          36.000    33685107.242   137934884.199         -23.764          40.000  
J02  34894011.479   183369267.7003        -62.020          33.000    34894003.596                         -40.848          27.000  
E26  22226746.439   116802357.690       -2375.847          40.000    22226745.395    89497890.790       -1821.379          40.000  
S29  34619695.464   181927720.654         -75.262          41.000  
C08  34441133.629   179344019.564         775.574          42.000    34441119.604   138680118.540         599.467          43.000  
C16  34322919.657   178728444.216         331.889          41.000    34322911.784   138204134.081         257.608          38.000  
R07  19766210.587   105810211.079         977.983          46.000    19766216.316    82296814.827         758.732          33.000  
G18  18767294.763    98622765.052       -1968.079          43.000    18767291.446    76848912.650       -1533.470          38.000  
E29  22036556.663   115802929.291        -852.429          46.000    22036554.957    88732075.036        -653.007          42.000  
G10  20976120.779   110230269.104        2734.047          46.000    20976118.713    85893712.654        2131.348          34.000  
E27  24567738.221   129104339.836        1398.787          31.000    24567744.542    98924120.064        1072.736          39.000  
G28  22191074.031   116614897.104        3313.565          32.000                                                                  
E19  22225650.319                         450.967          22.000                                                                  
E21  25114699.576   131978636.5751       2131.275          36.000    25114706.049   101126513.191        1631.519          43.000  
C06                                                                  33987650.745   136854193.8002        403.666          38.000  
J04                                                                  37068974.276   151791261.604         323.885          40.000  
> 2025 10 27 01 38 50.9920000  0 35                     
S37  34215131.473   179801728.6823        -76.380          38.000  
G12  21089738.569   110827322.706        1931.209          31.000    21089738.066    86358962.445        1506.014          36.000  
G23  18246391.603    95885429.459        1269.971          44.000    18246386.694    74715907.218         988.703          42.000  
G24  18709276.448    98317909.812       -2467.313          42.000    18709274.205    76611345.179       -1919.916          42.000  
G25  21004511.519   110379452.8652       2826.769          39.000    21004505.886    86010026.469        2203.558          33.000  
S28  35037702.090   184124359.580         -72.543          42.000  
C25  20800703.019   108314728.373       -1211.481          39.000                                                                  
C13  34674267.546   180558013.093         823.005          42.000    34674259.887   139618878.414         636.081          41.000  
C41  21035769.415   109538778.380        -216.125          41.000                                                                  
C39  33726404.312   175622240.796         164.616          41.000                                                                  
C09  35198382.027   183287208.702         646.337          36.000    35198371.909   141729257.9041        498.545          37.000  
C10  37647523.347   196040543.0762       -977.932          29.000    37647521.224   151590964.349        -752.343          26.000  
R16  18783170.974   100336321.160        -868.382          41.000    18783169.889    78039364.591        -674.706          39.000  
R09  18315877.205                        2745.288          40.000    18315869.931    76071106.509        2137.451          38.000  
R20  21640052.613   115719097.9152      -4128.727          36.000    21640084.758                       -3217.362          26.000  
R21  18996441.265   101653788.7571      -3124.845          44.000    18996436.949    79064044.265       -2429.979          34.000  
R06  19041040.715   101606664.455         -88.459          32.000                                                                  
J07  34215136.546   179801761.432         -75.734          35.000    34215131.722   140105247.741         -57.370          41.000  
J03  33685117.000   177016487.1682        -27.189          36.000    33685112.436   137934905.641         -22.744          39.000  
J02  34894026.570   183369330.4462        -61.454          39.000    34894016.750   142885164.9281        -48.284          28.000  
E26  22227199.194   116804734.717       -2376.230          41.000    22227197.256    89499711.975       -1820.156          38.000  
S29  34619709.921   181927796.648         -74.457          40.000  
C08  34440984.943   179343245.017         775.006          40.000    34440970.989   138679519.620         600.065          44.000  
C16  34322855.948   178728112.680         331.304          43.000    34322848.166   138203877.643         256.929          39.000  
R07  19766027.544   105809234.607         977.444          46.000    19766033.670    82296055.347         759.436          30.000  
G18  18767669.309    98624733.651       -1967.303          41.000    18767666.034    76850446.553       -1533.239          37.000  
E29  22036719.203   115803783.326        -852.713          46.000    22036717.426    88732729.385        -652.391          44.000  
G10  20975601.057   110227536.441        2733.375          43.000    20975600.198    85891583.401        2130.927          33.000  
E27  24567474.161   129102939.126        1403.139          34.000    24567477.998    98923046.981        1072.610          41.000  
G28  22190445.778   116611584.170        3312.731          35.000                                                                  
E19  22225570.331                         448.726          25.000                                                                  
E21  25114300.446   131976539.5071       2127.355          39.000    25114300.586   101124880.872        1632.117          41.000  
C06                                                                  33987551.572   136853790.635         404.611          39.000  
E33                                                                  21500595.695                          65.543          25.000  
J04                                                                  37068895.327   151790938.690         323.937          42.000  
> 2025 10 27 01 38 51.9920000  0 36                     
S37  34215146.035   179801805.1692        -74.295          35.000  
G12  21089371.445   110825393.392        1926.129          39.000    21089370.891    86357458.868        1501.850          34.000  
G23  18246150.537    95884163.016        1265.653          45.000    18246145.627    74714920.342         986.354          43.000  
G24  18709745.949    98320376.692       -2466.570          43.000    18709743.679    76613267.492       -1923.180          39.000  
G25  21003972.067   110376626.0372       2816.916          36.000    21003967.848    86007822.915        2204.415          29.000  
S28  35037716.399   184124435.032         -75.721          41.000  
C25  20800935.783   108315940.879       -1214.028          34.000                                                                  
C13  34674109.958   180557193.083         819.700          43.000    34674102.585   139618244.309         634.178          41.000  
C41  21035810.883   109538994.534        -216.282          38.000                                                                  
C39  33726373.344   175622079.317         162.237          43.000                                                                  
C09  35198258.572   183286566.023         642.203          38.000    35198248.593   141728760.915         496.350          40.000  
C10  37647710.800   196041509.2953       -981.769          31.000    37647708.983   151591723.3153       -759.174          32.000  
R16  18783333.579   100337189.431        -868.864          38.000    18783332.369    78040039.911        -675.747          40.000  
R09  18315366.278    97803033.6873       2742.322          43.000    18315355.804    76068971.255        2137.341          35.000  
R20  21640827.878   115723229.1372      -4132.013          34.000                                                                  
R21  18997025.210   101656917.026       -3128.708          41.000    18997023.601    79066477.418       -2434.442          35.000  
R06  19041057.686   101606753.440         -88.284          32.000                                                                  
J07  34215151.185   179801837.956         -75.089          31.000    34215146.315   140105307.566         -60.981          32.000  
J03  33685127.849                         -30.749          40.000    33685118.003   137934928.522         -23.445          38.000  
J02  34894039.314   183369413.4143        -62.818          39.000    34894031.521                         -50.845          28.000  
E26  22227651.867   116807113.789       -2380.914          39.000    22227650.683    89501534.768       -1823.687          40.000  
S29  34619724.835   181927874.841         -78.632          43.000  
C08  34440836.289   179342470.930         774.253          39.000    34440822.411   138678921.115         598.386          45.000  
C16  34322792.657   178727783.054         327.321          43.000    34322784.861   138203622.727         254.156          40.000  
R07  19765846.405   105808259.270         974.823          43.000    19765849.695                         758.866          34.000  
G18  18768044.435    98626704.972       -1972.636          41.000    18768040.979    76851982.672       -1536.608          38.000  
E29  22036881.796   115804638.014        -854.015          46.000    22036880.217    88733384.364        -654.765          44.000  
G10  20975081.300   110224804.791        2732.233          44.000    20975079.837    85889454.780        2128.112          34.000  
E27  24567208.203   129101539.204        1398.568          37.000    24567211.982    98921974.104        1072.064          42.000  
G28  22189818.712                        3310.798          28.000                                                                  
E19  22225489.014                         447.996          25.000                                                                  
G32  21191644.890                        1105.282          27.000    21191633.954    86776198.102         861.767          30.000  
E21  25113891.820   131974410.570        2127.688          40.000    25113895.818   101123249.700        1630.079          40.000  
C06                                                                  33987451.743   136853389.102         400.353          41.000  
E33                                                                  21500579.814    86573925.0511         64.137          27.000  
J04                                                                  37068816.468   151790616.140         322.150          41.000  
> 2025 10 27 01 38 52.9920000  0 36                     
S37  34215160.742   179801881.4162        -78.719          37.000  
G12  21089004.181   110823463.201        1928.925          40.000    21089003.592    86355954.847        1504.593          37.000  
G23  18245909.301    95882895.235        1265.369          43.000    18245904.370    74713932.406         986.665          43.000  
G24  18710215.057    98322842.342       -2468.011          42.000    18710212.888    76615188.725       -1921.868          40.000  
G25  21003439.781   110373820.2023       2832.121          34.000    21003431.994    86005542.5991       2202.038          33.000  
S28  35037730.794   184124510.612         -76.713          44.000  
C25  20801168.337   108317152.116       -1211.948          42.000                                                                  
C13  34673952.253   180556371.414         820.141          42.000    34673944.905   139617608.926         634.240          43.000  
C41  21035852.100   109539209.088        -216.019          41.000                                                                  
C39  33726342.315   175621917.065         161.590          41.000                                                                  
C09  35198135.225   183285923.514         642.349          38.000    35198125.212   141728264.015         495.633          40.000  
C10  37647904.315                        -979.389          27.000    37647898.841   151592482.0072       -759.582          28.000  
R16  18783495.819   100338056.850        -868.196          41.000    18783494.680    78040714.547        -674.067          37.000  
R09  18314848.651    97800288.6902       2748.053          36.000    18314841.883    76066836.368        2134.082          41.000  
R20  21641600.078   115727360.5791      -4131.504          26.000                                                                  
R21  18997609.422   101660046.034       -3129.953          45.000    18997607.570    79068911.034       -2433.960          34.000  
R06  19041073.962   101606840.462         -87.801          28.000                                                                  
J07  34215165.709   179801914.212         -79.065          34.000    34215160.773   140105366.603         -59.808          42.000  
J03  33685132.949   177016567.8553        -27.890          36.000    33685125.161                         -23.238          33.000  
J02  34894052.612                         -58.161          30.000    34894043.382                         -45.719          26.000  
E26  22228104.247   116809492.965       -2380.050          43.000    22228103.235    89503357.810       -1823.370          40.000  
S29  34619739.746   181927952.837         -78.967          43.000  
C08  34440687.393   179341695.294         773.497          38.000    34440673.482   138678321.305         598.208          43.000  
C16  34322729.258   178727452.748         329.688          43.000    34322721.423   138203367.297         254.745          40.000  
R07  19765664.058   105807282.772         975.439          43.000    19765662.153    82294439.7163        756.646          34.000  
E33  21500568.488   112986249.6301         80.956          28.000    21500563.344    86573861.277          61.618          30.000  
G18  18768419.635    98628676.605       -1972.047          42.000    18768416.141    76853519.012       -1536.777          40.000  
E29  22037044.331   115805491.281        -855.801          44.000    22037042.751    88734038.069        -655.351          46.000  
G10  20974561.222   110222072.058        2730.927          45.000    20974558.813    85887325.277        2127.577          37.000  
E27  24566943.936   129100138.350        1400.983          36.000    24566945.359    98920900.730        1074.200          42.000  
G28  22189190.080   116604979.9993       3308.501          37.000                                                                  
E19  22225402.204                         448.073          22.000    22225410.937    89492519.2841        342.805          26.000  
G32  21191441.242                        1109.665          26.000    21191426.667    86775335.094         862.917          31.000  
E21  25113484.640   131972281.869        2128.728          40.000    25113490.548   101121618.461        1631.998          33.000  
C06                                                                  33987351.162   136852987.203         401.676          38.000  
J04                                                                  37068737.412   151790292.211         322.874          40.000  
> 2025 10 27 01 38 53.9920000  0 36                     
S37  34215175.127   179801957.8692        -74.725          36.000  
G12  21088636.836   110821532.645        1933.355          35.000    21088636.254    86354450.748        1503.246          37.000  
G23  18245668.190    95881627.853        1267.398          42.000    18245663.265    74712944.919         987.153          44.000  
G24  18710684.381    98325308.191       -2465.884          43.000    18710682.194    76617110.255       -1922.163          39.000  
G25  21002895.316                        2827.623          37.000    21002895.807    86003339.146        2201.733          35.000  
S28  35037745.385   184124587.056         -77.647          43.000  
C25  20801400.946   108318363.265       -1211.091          37.000                                                                  
C13  34673794.354   180555549.873         822.963          40.000    34673787.333   139616973.778         634.602          43.000  
C41  21035893.119   109539423.327        -213.173          40.000                                                                  
C39  33726311.288   175621755.396         160.777          41.000                                                                  
C09  35198012.047   183285281.652         641.552          40.000    35198001.969   141727767.660         496.586          38.000  
C10  37648091.381   196043490.5983       -983.503          33.000    37648084.130   151593241.2592       -761.703          28.000  
R16  18783658.362   100338924.633        -867.461          41.000    18783657.189    78041389.503        -675.030          41.000  
R09  18314343.073    97797569.6763       2743.516          38.000    18314328.129    76064701.670        2137.695          38.000  
R20  21642377.387   115731517.3943      -4130.864          27.000                                                                  
R21  18998194.643   101663176.253       -3131.077          43.000    18998193.397    79071345.730       -2436.299          34.000  
R06  19041090.142   101606927.529         -88.202          28.000                                                                  
J07  34215180.264   179801990.165         -75.589          34.000    34215175.295   140105425.850         -57.082          40.000  
J03  33685132.638   177016597.3822        -30.269          37.000    33685131.824   137934983.2221        -22.846          37.000  
J02  34894065.655                         -63.293          34.000    34894058.549                         -50.213          26.000  
E26  22228557.551   116811872.664       -2377.321          39.000    22228555.556    89505181.338       -1824.964          36.000  
S29  34619754.707   181928031.575         -80.066          42.000  
C08  34440538.341   179340919.648         774.356          38.000    34440524.556   138677721.563         599.363          42.000  
C16  34322665.983   178727123.098         329.435          41.000    34322658.216   138203112.370         254.247          40.000  
R07  19765481.718   105806306.582         976.188          47.000    19765478.794    82293680.4412        758.878          35.000  
E33  21500550.130   112986167.512          81.818          32.000    21500547.362    86573798.352          61.010          31.000  
G18  18768795.120    98630649.357       -1973.457          41.000    18768791.523    76855056.208       -1538.657          37.000  
E29  22037206.605   115806344.517        -851.406          41.000    22037205.017    88734691.978        -654.444          46.000  
G10  20974041.245   110219339.596        2731.880          46.000    20974039.166    85885196.138        2128.915          39.000  
E27  24566675.318   129098737.032        1402.022          38.000    24566678.428    98919827.078        1073.821          39.000  
G28  22188557.646   116601671.9782       3306.782          37.000                                                                  
E19  22225314.776                         462.564          18.000    22225325.039    89492175.377         345.914          27.000  
E21  25113082.681   131970152.979        2128.313          36.000    25113085.423   101119987.196        1630.897          36.000  
C06                                                                  33987251.788   136852585.948         399.867          38.000  
G32                                                                  21191215.853    86774471.720         863.596          34.000  
J04                                                                  37068658.256   151789968.103         323.916          40.000  
> 2025 10 27 01 38 54.9920000  0 35                     
S37  34215189.627   179802034.1262        -76.010          40.000  
G12  21088269.859   110819605.9893       1929.314          39.000    21088268.882    86352946.920        1505.153          35.000  
G23  18245427.217    95880360.882        1267.857          44.000    18245422.202    74711957.674         987.155          44.000  
G24  18711153.814    98327774.650       -2466.193          40.000    18711151.536    76619032.090       -1921.830          38.000  
G25  21002351.681   110368102.7543       2828.339          42.000    21002358.007    86001135.745        2203.353          32.000  
S28  35037759.878   184124663.361         -76.383          43.000  
C25  20801633.908   108319575.185       -1211.212          39.000                                                                  
C13  34673636.550   180554728.496         820.138          39.000    34673629.698   139616338.539         635.805          44.000  
C41  21035934.299   109539637.637        -212.975          41.000                                                                  
C39  33726280.275   175621593.998         161.245          42.000                                                                  
C09  35197888.805   183284640.009         641.934          38.000    35197878.831   141727271.481         496.460          40.000  
C10  37648277.561   196044472.2082       -981.342          32.000    37648273.300   151594000.0942       -759.654          35.000  
R16  18783821.063   100339793.608        -871.285          37.000    18783819.797    78042065.298        -675.986          42.000  
R09  18313822.860    97794791.4332       2744.373          40.000    18313814.511    76062581.5523       2136.835          37.000  
R20  21643148.540                       -4132.505          27.000                                                                  
R21  18998779.788   101666306.897       -3130.430          44.000    18998778.348    79073780.646       -2435.303          34.000  
R06  19041106.105   101606989.7543        -88.205          28.000                                                                  
J07  34215194.719   179802066.396         -75.835          37.000    34215189.894   140105485.178         -57.182          39.000  
J03  33685139.451                         -28.728          32.000    33685139.569   137935006.511         -25.105          37.000  
J02  34894078.701   183369620.6083        -62.357          35.000    34894074.859                         -52.551          26.000  
E26  22229010.154   116814253.038       -2380.794          38.000    22229008.781    89507005.123       -1823.808          40.000  
S29  34619769.674   181928110.371         -79.431          42.000  
C08  34440389.324   179340144.007         777.368          38.000    34440375.696   138677121.784         600.310          42.000  
C16  34322602.610   178726793.730         329.001          41.000    34322594.959   138202857.682         254.517          39.000  
R07  19765299.391   105805330.193         976.454          45.000    19765296.756    82292920.4071        759.635          38.000  
E33  21500534.586   112986085.911          80.307          32.000    21500533.194    86573735.772          62.361          35.000  
G18  18769170.641    98632622.831       -1974.526          41.000    18769167.027    76856593.939       -1537.503          41.000  
E29  22037369.035   115807197.970        -854.231          40.000    22037367.512    88735345.829        -653.907          48.000  
G10  20973521.330   110216606.977        2732.763          43.000    20973519.234    85883066.825        2129.920          39.000  
E27  24566406.431   129097336.106        1402.126          35.000    24566411.508    98918753.746        1073.127          40.000  
G28  22187928.845   116598363.5941       3307.326          34.000                                                                  
E21  25112674.366   131968023.895        2129.613          37.000    25112680.113   101118355.957        1632.552          33.000  
C06                                                                  33987152.242   136852184.804         400.817          41.000  
G32                                                                  21191005.321    86773608.453         864.103          34.000  
J04                                                                  37068579.178   151789644.113         324.237          40.000  
> 2025 10 27 01 38 55.9920000  0 35                     
S37  34215204.076   179802110.1602        -75.603          40.000  
G12  21087902.493   110817675.8442       1929.285          42.000    21087901.609    86351443.023        1502.669          31.000  
G23  18245186.119    95879093.829        1269.355          42.000    18245181.154    74710970.385         987.656          43.000  
G24  18711623.107    98330240.896       -2464.077          39.000    18711620.841    76620953.952       -1921.719          41.000  
G25  21001811.800   110365265.7313       2823.133          35.000    21001819.957                        2205.603          26.000  
S28  35037774.338   184124739.613         -74.458          46.000  
C25  20801866.700   108320787.181       -1211.665          39.000                                                                  
C13  34673478.577   180553906.558         823.701          39.000    34673471.980   139615702.979         636.802          43.000  
C41  21035975.364   109539851.588        -214.409          40.000                                                                  
C39  33726249.288   175621432.467         161.671          40.000                                                                  
C09  35197765.622   183283998.360         642.773          39.000    35197755.652   141726775.305         497.660          39.000  
C10  37648464.833   196045453.5602       -980.197          29.000    37648462.534   151594758.9472       -757.330          32.000  
R16  18783983.942   100340662.954        -867.957          34.000    18783982.379    78042741.132        -674.858          37.000  
R09  18313306.011    97792031.8832       2741.937          44.000    18313300.805    76060447.6362       2133.008          34.000  
R20  21643922.509   115739779.6333      -4132.217          27.000                                                                  
R21  18999365.034   101669437.899       -3129.789          47.000    18999363.515    79076215.766       -2433.553          35.000  
R06  19041121.364   101607071.3682        -83.807          29.000                                                                  
J07  34215208.968   179802142.393         -74.883          37.000    34215204.424   140105544.489         -59.219          37.000  
J03  33685145.413   177016633.3123        -26.984          40.000    33685148.075                         -25.322          36.000  
E26  22229463.210   116816633.449       -2380.726          42.000    22229461.265    89508829.069       -1823.089          36.000  
S29  34619784.618   181928188.985         -76.959          44.000  
C08  34440240.428   179339368.102         776.351          40.000    34440226.730   138676521.772         600.656          43.000  
C16  34322539.354   178726464.286         329.423          43.000    34322531.619   138202602.811         256.453          37.000  
R07  19765117.041   105804353.406         977.984          46.000    19765114.336    82292160.623         762.211          40.000  
E33  21500518.068   112986004.551          83.703          36.000    21500517.066    86573673.370          64.426          34.000  
G18  18769546.140    98634596.575       -1972.866          44.000    18769542.565    76858131.971       -1537.444          39.000  
E29  22037531.405   115808050.921        -850.930          42.000    22037529.744    88735999.395        -652.136          45.000  
G10  20973001.379   110213874.091        2734.204          43.000    20972999.293    85880937.303        2130.057          37.000  
E27  24566140.300   129095935.058        1400.976          33.000    24566145.040    98917680.052        1074.076          36.000  
G28  22187301.624   116595055.865        3309.522          36.000                                                                  
G32  21190805.837                        1109.958          25.000    21190792.343    86772744.938         863.789          33.000  
E21  25112265.439   131965894.636        2128.909          35.000    25112274.712   101116724.450        1632.518          29.000  
C06                                                                  33987052.718   136851783.580         402.505          41.000  
J02                                                                  34894091.838                         -49.908          26.000  
J04                                                                  37068499.827   151789319.628         325.598          37.000  
> 2025 10 27 01 38 56.9920000  0 35                     
S37  34215218.737   179802186.9742        -76.792          42.000  
G12  21087535.544   110815747.3042       1928.161          41.000    21087534.564    86349940.090        1502.457          28.000  
G23  18244945.084    95877827.014        1266.657          39.000    18244940.195    74709983.248         986.400          43.000  
G24  18712092.567    98332707.869       -2468.180          37.000    18712090.271    76622876.237       -1923.852          39.000  
G25  21001277.077   110362455.3112       2822.462          36.000    21001283.322                        2203.699          27.000  
S28  35037788.883   184124816.075         -76.621          46.000  
C25  20802101.433   108322001.0073      -1212.826          40.000                                                                  
C13  34673320.590   180553084.514         821.014          37.000    34673314.175   139615067.252         635.313          44.000  
C41  21036016.458   109540065.710        -214.786          43.000                                                                  
C39  33726218.359   175621271.433         160.075          43.000                                                                  
C09  35197642.432   183283357.523         640.300          39.000    35197632.556   141726279.758         495.428          38.000  
C10  37648654.405   196046435.1341       -982.372          34.000    37648651.513   151595517.8011       -758.560          35.000  
R16  18784147.020   100341541.4553       -871.156          38.000    18784145.310    78043418.150        -679.718          38.000  
R09  18312794.462    97789290.0362       2740.363          44.000    18312787.420    76058315.039        2131.897          35.000  
R21  18999950.538   101672569.848       -3132.186          49.000    18999948.831    79078651.805       -2436.219          36.000  
R06  19041135.202   101607157.3842        -85.906          28.000                                                                  
R22  19363953.177                         762.668          29.000                                                                  
J07  34215223.501   179802219.240         -76.892          38.000    34215218.988   140105604.365         -59.734          40.000  
J03  33685149.348   177016664.3532        -31.796          40.000    33685153.433   137935071.7681        -26.842          38.000  
E26  22229916.088   116819014.949       -2381.163          40.000    22229914.764    89510653.881       -1825.444          40.000  
S29  34619799.646   181928267.938         -79.602          46.000  
C08  34440091.442   179338592.074         775.482          40.000    34440077.746   138675921.747         599.722          44.000  
C16  34322476.165   178726135.475         327.997          40.000    34322468.563   138202348.728         253.382          42.000  
R07  19764934.416   105803375.767         978.340          43.000    19764928.941    82291400.284         761.139          38.000  
E33  21500502.246   112985923.628          80.837          36.000    21500502.275    86573611.326          62.880          37.000  
G18  18769921.964    98636571.431       -1975.994          42.000    18769918.343    76859670.806       -1539.468          40.000  
E29  22037693.279   115808903.703        -852.483          39.000    22037692.318    88736652.790        -653.805          46.000  
G10  20972481.267   110211140.337        2733.406          41.000    20972479.094    85878807.147        2130.204          37.000  
E27  24565874.243   129094535.422        1398.784          36.000    24565878.283    98916607.612        1071.898          37.000  
G28  22186672.100   116591748.925        3306.872          43.000                                                                  
G32  21190582.905                        1107.172          26.000    21190580.833    86771881.439         863.338          30.000  
E21  25111866.051   131963766.760        2126.452          35.000    25111871.103   101115098.1641       1629.510          30.000  
C06                                                                  33986953.347   136851383.024         400.651          41.000  
J02                                                                  34894101.186                         -49.099          32.000  
J04                                                                  37068420.594   151788995.294         325.542          37.000  
> 2025 10 27 01 38 57.9920000  0 34                     
S37  34215233.772   179802265.6492        -78.994          41.000  
G12  21087168.894   110813820.8652       1927.631          36.000    21087167.931    86348438.942        1500.836          30.000  
G23  18244704.143    95876561.592        1267.398          40.000    18244699.347    74708997.080         987.877          39.000  
G24  18712562.269    98335176.161       -2466.580          39.000    18712560.097    76624799.549       -1922.291          38.000  
G25  21000739.359   110359629.8212       2821.274          39.000    21000745.965    85994543.1471       2197.903          28.000  
S28  35037803.732   184124894.072         -78.420          44.000  
C25  20802333.861   108323215.4002      -1211.056          38.000                                                                  
C13  34673162.744   180552263.025         824.536          38.000    34673156.520   139614432.091         636.243          37.000  
C41  21036057.766   109540280.782        -212.949          39.000                                                                  
C39  33726187.884   175621112.109         159.721          42.000                                                                  
C09  35197519.792   183282718.639         637.893          38.000    35197509.949   141725785.779         493.006          38.000  
C10  37648843.994   196047419.242        -987.287          34.000    37648840.718   151596278.784        -762.220          35.000  
R16  18784310.340   100342413.8102       -872.237          41.000    18784308.659    78044096.520        -677.600          36.000  
R09  18312278.874    97786550.7142       2738.312          45.000    18312275.441                        2123.206          34.000  
R21  19000536.406   101675704.061       -3136.046          48.000    19000534.597    79081089.564       -2437.787          35.000  
R06  19041151.520   101607243.9012        -83.723          27.000                                                                  
J07  34215238.441   179802297.909         -78.899          36.000    34215234.074   140105665.699         -61.042          36.000  
J03  33685151.419   177016697.3332        -32.274          34.000    33685157.872   137935097.555         -27.006          37.000  
E26  22230369.750   116821398.882       -2385.152          42.000    22230368.217    89512480.476       -1826.900          38.000  
S29  34619815.036   181928348.553         -80.481          42.000  
C08  34439942.598   179337816.977         777.473          36.000    34439928.963   138675322.447         600.161          40.000  
C16  34322413.512   178725808.459         326.607          42.000    34322405.803   138202095.846         252.772          40.000  
R07  19764751.966   105802398.844         975.952          41.000    19764745.861    82290640.407         761.034          41.000  
E33  21500486.722   112985844.431          79.479          37.000    21500485.535    86573550.706          60.173          37.000  
G18  18770298.253    98638548.645       -1978.402          45.000    18770294.599    76861211.409       -1541.377          38.000  
E29  22037855.709   115809757.156        -851.620          40.000    22037854.677    88737306.736        -652.800          43.000  
G10  20971961.199   110208407.341        2733.044          39.000    20971959.131    85876677.516        2129.794          35.000  
E27  24565608.429   129093137.436        1398.761          38.000    24565612.492    98915536.462        1069.662          33.000  
G28  22186041.258   116588444.209        3303.576          37.000                                                                  
G32  21190370.730   111356149.4283       1106.440          25.000    21190369.786                         863.219          22.000  
E21  25111462.529   131961640.888        2125.016          32.000    25111465.649   101113469.124        1628.063          29.000  
C06                                                                  33986854.256   136850983.798         399.546          38.000  
J02                                                                  34894113.680   142885561.6331        -49.368          30.000  
J04                                                                  37068341.521   151788671.920         323.801          35.000  
> 2025 10 27 01 38 58.9920000  0 33                     
S37  34215248.971   179802345.490         -79.842          39.000  
G12  21086802.590   110811895.9802       1923.442          43.000    21086801.848    86346939.035        1498.474          34.000  
G23  18244463.362    95875296.235        1264.737          41.000    18244458.681    74708011.081         985.658          39.000  
G24  18713032.043    98337644.675       -2469.211          42.000    18713029.755    76626723.042       -1923.567          32.000  
G25  21000206.579   110356829.5163       2821.865          37.000    21000210.369    85992343.867        2199.049          33.000  
S28  35037818.835   184124973.410         -79.515          44.000  
C25  20802567.684   108324430.4162      -1215.283          41.000                                                                  
C13  34673005.005   180551441.354         820.506          38.000    34672998.777   139613796.632         635.815          37.000  
C41  21036098.938   109540495.562        -214.058          37.000                                                                  
C39  33726157.502   175620953.743         158.380          43.000                                                                  
C09  35197397.511   183282081.473         637.307          40.000    35197387.568   141725293.112         493.202          37.000  
C10  37649032.736   196048405.305        -986.501          34.000    37649030.247   151597041.337        -762.368          34.000  
R16  18784473.813   100343286.7893       -874.561          40.000    18784472.136    78044775.704        -681.445          33.000  
R09  18311760.872    97783781.2953       2736.151          42.000    18311769.697    76054088.6063       2128.119          34.000  
R21  19001122.624   101678840.360       -3136.466          47.000    19001120.755    79083528.834       -2439.257          37.000  
J07  34215253.442   179802377.787         -80.007          35.000    34215251.840   140105735.8231        -60.583          35.000  
J03  33685160.984   177016732.1652        -35.314          43.000    33685163.644   137935113.6321        -28.354          37.000  
E26  22230823.984   116823784.722       -2386.052          42.000    22230822.055    89514308.605       -1828.264          34.000  
S29  34619830.703   181928430.488         -82.208          43.000  
C08  34439793.681   179337041.797         774.999          38.000    34439780.134   138674722.949         598.362          39.000  
C16  34322350.914   178725482.750         325.066          43.000    34322343.241   138201843.870         251.734          38.000  
R07  19764569.408   105801421.163         976.299          40.000    19764563.536    82289880.065         759.871          35.000  
E33  21500472.656   112985766.209          78.181          37.000    21500471.252    86573490.771          59.734          36.000  
G18  18770674.664    98640527.728       -1979.616          46.000    18770671.166    76862753.603       -1542.305          36.000  
E29  22038018.149   115810610.314        -853.498          41.000    22038016.823    88737960.429        -653.428          39.000  
G10  20971440.976   110205673.693        2734.581          36.000    20971438.984    85874547.416        2128.991          35.000  
E27  24565342.688   129091740.723        1396.546          40.000    24565346.617    98914466.022        1070.559          27.000  
G28  22185412.667   116585141.657        3302.325          37.000                                                                  
G32  21190166.650   111355076.9122       1107.362          38.000                                                                  
E21  25111057.063   131959516.845        2123.371          34.000    25111060.898   101111841.568        1628.021          33.000  
C06                                                                  33986755.423   136850585.726         397.885          37.000  
J02                                                                  34894127.082   142885611.141         -49.270          37.000  
J04                                                                  37068262.393   151788348.453         323.810          32.000  
> 2025 10 27 01 38 59.9920000  0 34                     
S37  34215264.348   179802426.310         -80.031          40.000  
G12  21086436.496   110809972.3132       1924.009          40.000    21086435.901    86345440.086        1499.666          34.000  
G23  18244222.556    95874030.606        1267.617          36.000    18244217.816    74707024.878         987.092          37.000  
G24  18713501.800    98340112.765       -2466.162          37.000    18713499.489    76628646.188       -1921.380          33.000  
G25  20999667.787   110354008.8382       2821.389          35.000    20999679.659    85990146.125        2197.841          32.000  
S28  35037834.144   184125053.698         -79.589          44.000  
C25  20802801.005   108325645.3172      -1213.264          41.000                                                                  
C13  34672847.087   180550618.686         823.463          38.000    34672840.812   139613160.547         637.529          37.000  
C41  21036140.102   109540709.455        -211.405          37.000                                                                  
C39  33726127.196   175620795.970         158.609          42.000                                                                  
C09  35197275.416   183281445.865         635.469          42.000    35197265.528   141724801.640         491.384          40.000  
C10  37649222.752   196049393.216        -987.559          34.000    37649220.118   151597805.249        -763.705          36.000  
R16  18784637.335   100344160.1682       -870.561          40.000    18784635.846    78045454.913        -677.857          37.000  
R09  18311245.040    97781045.8072       2735.168          42.000    18311260.119                        2125.508          22.000  
R21  19001709.155   101681978.593       -3138.482          48.000    19001707.240    79085969.677       -2441.442          39.000  
R06  19041188.784                         -82.891          26.000                                                                  
J07  34215268.693   179802458.593         -79.877          36.000    34215261.023   140105798.792         -61.994          35.000  
J03  33685169.104   177016768.6072        -35.760          44.000    33685173.639   137935141.876         -27.400          38.000  
J02  34894136.286   183369923.2992        -63.091          28.000    34894137.525   142885660.041         -49.044          30.000  
E26  22231278.064   116826172.342       -2387.187          44.000    22231276.558    89516138.068       -1829.259          38.000  
S29  34619846.504   181928513.416         -82.251          43.000  
C08  34439644.673   179336265.817         777.761          38.000    34439631.089   138674122.865         601.301          39.000  
C16  34322288.462   178725157.806         326.841          42.000    34322280.955   138201592.718         251.458          38.000  
R07  19764386.576   105800442.480         979.365          38.000    19764380.613    82289118.906         762.239          39.000  
E33  21500457.134   112985688.557          79.137          37.000    21500456.690    86573431.246          59.949          36.000  
G18  18771051.564    98642508.543       -1980.235          45.000    18771048.057    76864297.077       -1543.264          40.000  
E29  22038180.100   115811462.516        -850.125          38.000    22038178.958    88738613.453        -651.238          40.000  
G10  20970920.748   110202939.118        2735.299          38.000    20970918.675    85872416.527        2130.465          35.000  
E27  24565077.156   129090344.884        1396.594          39.000    24565080.664    98913396.523        1069.803          32.000  
G28  22184784.564   116581841.008        3299.685          39.000                                                                  
G32  21189944.230   111353968.1662       1109.735          38.000                                                                  
E21  25110652.533   131957394.547        2122.633          35.000    25110658.621   101110215.473        1625.482          37.000  
C06                                                                  33986656.853   136850188.507         397.369          38.000  
J04                                                                  37068183.369   151788024.592         326.018          34.000  
> 2025 10 27 01 39 00.9920000  0 33                     
S37  34215279.822   179802507.953         -83.043          39.000  
G12  21086070.662   110808049.563        1921.090          36.000    21086070.242    86343941.821        1497.239          35.000  
G23  18243981.734    95872764.872        1263.077          36.000    18243976.941    74706038.549         986.731          33.000  
G24  18713971.423    98342580.580       -2469.250          34.000    18713969.275    76630569.195       -1923.539          38.000  
G25  20999134.137   110351189.0201       2819.543          38.000    20999145.560    85987949.049        2196.669          32.000  
S28  35037849.510   184125134.676         -81.818          45.000  
C25  20803034.248   108326860.3052      -1215.705          41.000                                                                  
C13  34672688.932   180549795.365         822.397          33.000    34672682.775   139612523.937         635.618          39.000  
C41  21036181.068   109540922.928        -214.287          34.000                                                                  
C39  33726097.098   175620638.816         155.911          41.000                                                                  
C09  35197153.516   183280811.553         632.327          36.000    35197143.709   141724311.164         488.544          38.000  
C10  37649412.544   196050382.372        -989.279          35.000    37649410.227   151598570.024        -765.173          38.000  
R16  18784800.850   100345033.4321       -872.931          35.000    18784799.436    78046134.573        -681.062          30.000  
R09  18310734.546    97778311.2361       2732.135          36.000    18310746.350    76049837.9283       2125.726          41.000  
R21  19002295.981   101685118.314       -3140.780          49.000    19002293.959    79088411.717       -2443.086          37.000  
J07  34215284.167   179802540.240         -83.780          36.000    34215280.329   140105862.392         -64.667          39.000  
J03  33685176.346   177016806.201         -37.837          42.000    33685184.876   137935171.374         -30.132          37.000  
J02  34894150.533   183369998.0253        -65.358          28.000    34894148.852                         -50.396          26.000  
E26  22231732.479   116828561.387       -2390.010          43.000    22231731.354    89517968.657       -1831.561          39.000  
S29  34619862.583   181928597.177         -84.827          42.000  
C08  34439495.569   179335489.381         776.890          36.000    34439482.053   138673522.502         599.174          40.000  
C16  34322226.156   178724833.814         322.594          39.000    34322218.705   138201342.169         249.982          38.000  
R07  19764203.605   105799462.826         979.115          47.000    19764197.700    82288356.822         762.047          39.000  
E33  21500442.939   112985611.580          76.153          35.000    21500442.012    86573372.340          57.550          37.000  
G18  18771428.859    98644490.817       -1983.135          44.000    18771425.380    76865841.752       -1546.013          38.000  
E29  22038342.186   115812314.022        -852.032          37.000    22038341.033    88739265.945        -653.184          43.000  
G10  20970400.233   110200203.412        2734.758          35.000    20970398.148    85870284.895        2132.149          38.000  
E27  24564811.874   129088949.460        1394.985          37.000    24564814.672                        1067.784          28.000  
G28  22184156.694   116578541.689        3298.165          35.000                                                                  
G32  21189739.923   111352858.0032       1110.483          37.000                                                                  
E21  25110248.158   131955273.592        2119.849          35.000    25110254.497   101108590.269        1625.024          35.000  
C06                                                                  33986558.432   136849791.972         395.621          39.000  
J04                                                                  37068104.218   151787700.570         322.776          33.000  
> 2025 10 27 01 39 01.9920000  0 34                     
S37  34215295.279   179802589.324         -79.954          40.000  
G12  21085704.815   110806126.839        1923.135          41.000    21085704.312    86342443.526        1499.718          31.000  
G23  18243740.791    95871498.971        1266.674          38.000    18243736.200    74705052.122         989.511          33.000  
G24  18714441.050    98345048.795       -2468.203          40.000    18714438.909    76632492.362       -1922.984          36.000  
G25  20998588.331   110348369.833        2817.703          39.000    20998611.933                        2192.864          31.000  
S28  35037864.809   184125215.328         -79.424          43.000  
C25  20803267.441   108328075.4922      -1215.601          41.000                                                                  
C13  34672530.926   180548971.812         823.411          38.000    34672524.686   139611887.096         637.203          39.000  
C41  21036222.150   109541135.965        -213.686          39.000                                                                  
C39  33726066.717   175620481.502         158.414          41.000                                                                  
C09  35197031.563   183280177.003         635.144          38.000    35197021.784   141723820.390         491.398          38.000  
C10  37649602.523   196051371.277        -988.365          38.000    37649600.305   151599334.791        -765.562          35.000  
R16  18784964.607   100345907.883        -874.486          45.000    18784963.151    78046814.670        -680.640          30.000  
R09  18310225.959    97775577.504        2733.704          45.000    18310236.385    76047711.6902       2125.928          36.000  
R21  19002882.893   101688258.247       -3139.791          47.000    19002880.648    79090853.807       -2441.590          36.000  
R06  19041217.955                         -80.195          26.000                                                                  
J07  34215299.599   179802621.590         -79.471          37.000    34215296.916   140105925.932         -64.548          34.000  
J03  33685183.066   177016843.846         -37.156          42.000    33685185.506   137935200.605         -28.113          35.000  
J02  34894160.212                         -67.863          28.000    34894161.344   142885756.8851        -44.664          25.000  
E26  22232186.962   116830950.553       -2388.949          44.000    22232186.171    89519799.356       -1830.924          40.000  
S29  34619878.461   181928680.650         -82.275          42.000  
C08  34439346.468   179334712.628         777.830          38.000    34439332.822   138672921.803         601.527          37.000  
C16  34322163.930   178724509.715         324.453          43.000    34322156.509   138201091.487         251.314          40.000  
R07  19764020.639   105798482.560         980.923          42.000    19764014.645    82287594.532         762.858          37.000  
E33  21500428.597   112985534.765          78.332          34.000    21500427.385    86573313.416          59.313          34.000  
G18  18771806.181    98646473.421       -1982.081          45.000    18771802.693    76867386.637       -1545.080          38.000  
E29  22038504.402   115813165.305        -850.563          39.000    22038502.883    88739918.166        -651.386          42.000  
G10  20969879.585   110197467.408        2738.104          36.000    20969877.572    85868152.971        2131.738          36.000  
E27  24564546.545   129087554.261        1393.730          35.000    24564551.078    98911267.2071       1069.360          35.000  
G28  22183528.856   116575242.616        3298.834          39.000                                                                  
G32  21189526.436   111351748.169        1109.327          27.000                                                                  
E21  25109843.953   131953152.441        2119.537          35.000    25109851.333   101106964.904        1624.522          35.000  
C06                                                                  33986460.003   136849395.439         397.012          40.000  
J04                                                                  37068024.934   151787376.220         325.507          32.000  
> 2025 10 27 01 39 02.9920000  0 34                     
S37  34215310.944   179802671.662         -93.596          40.000  
G12  21085339.141   110804204.940        1912.056          38.000    21085338.634    86340946.012        1490.016          32.000  
G23  18243500.199    95870233.877        1253.631          39.000    18243495.568    74704066.430         976.613          37.000  
G24  18714910.825    98347517.506       -2481.298          37.000    18714908.739    76634415.985       -1931.391          34.000  
G25  20998051.983   110345551.354        2809.544          38.000    20998071.144    85983591.0271       2192.496          28.000  
S28  35037880.523   184125297.417         -93.714          44.000  
C25  20803500.933   108329291.273       -1224.973          41.000                                                                  
C13  34672372.909   180548148.534         812.744          35.000    34672366.608   139611250.511         628.712          39.000  
C41  21036263.099   109541349.162        -221.824          40.000                                                                  
C39  33726036.645   175620325.294         145.908          43.000                                                                  
C09  35196909.966   183279543.891         621.600          41.000    35196900.270   141723330.917         481.136          38.000  
C10  37649792.723   196052361.577       -1000.432          40.000    37649790.507   151600100.585        -774.873          34.000  
R16  18785128.391   100346783.242        -883.751          39.000    18785127.153    78047495.516        -691.790          32.000  
R09  18309715.115    97772845.169        2720.844          45.000    18309719.722    76045586.0451       2114.508          33.000  
R21  19003470.070   101691400.077       -3153.610          49.000    19003467.846    79093297.442       -2452.161          39.000  
R06  19041235.918   101607682.5563        -92.969          32.000                                                                  
J07  34215315.351   179802703.918         -93.204          37.000    34215313.046   140105989.991         -72.430          37.000  
J03  33685190.433   177016882.584         -49.529          44.000    33685191.110   137935225.8791        -39.056          35.000  
J02  34894168.533                         -69.403          29.000    34894171.452                         -54.742          32.000  
E26  22232641.770   116833341.100       -2400.803          44.000    22232640.821    89521631.058       -1839.855          40.000  
S29  34619894.607   181928765.416         -96.820          43.000  
C08  34439197.455   179333936.190         766.724          37.000    34439183.804   138672321.393         592.097          39.000  
C16  34322101.796   178724186.706         311.787          40.000    34322094.536   138200841.796         241.003          40.000  
R07  19763837.678   105797502.892         969.912          42.000    19763831.717    82286832.606         752.675          37.000  
E33  21500414.433   112985459.377          64.265          33.000    21500413.060    86573255.610          49.195          35.000  
G18  18772183.850    98648457.816       -1995.761          44.000    18772180.346    76868932.900       -1555.116          38.000  
E29  22038666.405   115814016.817        -860.353          35.000    22038664.755    88740570.678        -659.478          41.000  
G10  20969358.986   110194731.896        2725.713          36.000    20969357.184    85866021.444        2122.099          32.000  
E27  24564281.082   129086159.309        1386.669          37.000    24564284.387    98910198.438        1061.690          34.000  
G28  22182901.377   116571945.250        3285.753          37.000                                                                  
G32  21189312.660   111350638.130        1102.165          38.000                                                                  
E21  25109440.323   131951032.057        2110.214          37.000    25109447.500   101105340.320        1617.108          35.000  
C06                                                                  33986361.806   136848999.832         386.801          39.000  
J04                                                                  37067945.836   151787052.071         316.611          33.000  
> 2025 10 27 01 39 03.9920000  0 34                     
S37  34215326.745   179802755.1893        -78.957          40.000  
G12  21084973.628   110802284.510        1923.815          40.000    21084973.333    86339449.634        1500.054          35.000  
G23  18243259.797    95868970.996        1268.723          36.000    18243255.064    74703081.890         988.670          37.000  
G24  18715381.134    98349990.8933      -2465.955          36.000    18715378.929    76636341.056       -1921.081          35.000  
G25  20997521.148   110342734.395        2820.675          35.000    20997540.627    85981417.8261       2199.784          33.000  
S28  35037896.372   184125387.3703        -77.772          43.000  
C25  20803734.723   108330508.888       -1214.294          40.000                                                                  
C13  34672215.147   180547326.741         825.287          38.000    34672208.824   139610615.000         638.692          40.000  
C41  21036304.377   109541563.860        -211.374          38.000                                                                  
C39  33726006.891   175620170.557         159.740          41.000                                                                  
C09  35196788.439   183278912.257         638.077          40.000    35196778.925   141722842.415         493.185          35.000  
C10  37649983.091   196053353.017        -985.753          35.000    37649980.862   151600867.139        -761.991          36.000  
R16  18785292.597   100347660.850        -873.706          43.000    18785291.362    78048177.902        -679.775          28.000  
R09  18309202.715    97770114.695        2734.412          44.000    18309216.568    76043484.2853       2126.727          37.000  
R21  19004057.387   101694543.711       -3137.833          47.000    19004055.201    79095742.528       -2440.481          40.000  
R06  19041254.629                         -82.959          31.000                                                                  
J07  34215331.274   179802787.420         -78.334          35.000    34215328.237   140106055.092         -60.156          36.000  
J03  33685197.860   177016922.733         -34.921          43.000    33685196.523   137935257.112         -26.526          35.000  
J02  34894150.856   183369999.7843        -62.001          36.000    34894180.808                         -49.097          33.000  
E26  22233096.834   116835712.2801      -2386.791          43.000    22233096.383    89523464.053       -1828.879          41.000  
S29  34619910.946   181928859.0633        -80.426          42.000  
C08  34439048.603   179333161.076         780.585          36.000    34439034.950   138671722.100         602.639          37.000  
C16  34322040.043   178723865.218         326.672          41.000    34322032.843   138200593.125         252.217          38.000  
R07  19763654.927   105796524.682         981.923          43.000    19763649.096    82286071.748         764.202          38.000  
E33  21500400.411   112985365.9311         77.826          33.000    21500399.045    86573199.340          61.182          35.000  
G18  18772561.849    98650444.051       -1980.647          45.000    18772558.345    76870480.596       -1543.020          40.000  
E29  22038828.841   115814826.9461       -848.948          39.000    22038827.324    88741224.342        -649.923          44.000  
G10  20968838.654   110191998.041        2737.852          37.000    20968836.885    85863890.995        2134.536          33.000  
E27  24564016.019   129084766.064        1397.914          36.000    24564020.567    98909130.939        1071.139          34.000  
G28  22182274.208   116568649.329        3300.877          37.000                                                                  
G32  21189101.090   111349529.581        1109.077          33.000                                                                  
E21  25109054.715   131948972.9121       2124.660          34.000    25109043.466   101103716.420        1628.621          36.000  
C06                                                                  33986263.872   136848605.356         398.817          40.000  
J04                                                                  37067866.817   151786728.805         327.949          33.000  
> 2025 10 27 01 39 04.9920000  0 33                     
S37  34215342.599   179802838.9023        -86.965          40.000  
G12  21084608.078                        1916.597          38.000    21084607.087                        1493.970          32.000  
G23  18243019.328                        1258.206          38.000    18243014.636    74702097.215         981.086          40.000  
G24  18715850.168                       -2475.335          39.000    18715849.010    76638265.766       -1927.647          35.000  
G25  20996983.450                        2812.823          40.000    20997007.874    85979237.1481       2192.189          39.000  
S28  35037912.198   184125471.2963        -87.831          42.000  
C25  20803968.485   108331722.5823      -1222.625          38.000                                                                  
C13  34672057.164                         817.318          38.000    34672050.972   139609978.998         632.398          40.000  
C41  21036345.762   109541771.8073       -219.027          34.000                                                                  
C39  33725977.016   175620015.242         151.089          41.000                                                                  
C09  35196667.139   183278282.0583        627.322          40.000    35196657.630   141722353.610         485.231          41.000  
C10  37650173.371   196054332.6653       -994.949          32.000    37650171.262   151601633.258        -771.196          35.000  
R16  18785456.792                        -883.530          41.000    18785455.662    78048860.393        -687.596          33.000  
R09  18308692.065                        2725.623          46.000    18308702.134    76041348.2492       2119.202          39.000  
R20  21650910.720                       -4127.325          29.000                                                                  
R21  19004644.995   101697693.2703      -3148.977          49.000    19004642.591    79098187.517       -2449.723          40.000  
J07  34215346.943   179802861.1943        -87.609          35.000    34215344.890   140106119.505         -68.301          40.000  
J03  33685205.322                         -43.680          44.000    33685206.673   137935287.575         -34.796          36.000  
J02  34894154.826   183370064.5542        -69.258          38.000    34894182.089   142885887.0351        -52.999          37.000  
E26  22233553.075   116838109.9401      -2395.041          44.000    22233551.546                       -1835.303          41.000  
S29  34619927.337   181928946.0473        -91.016          44.000  
C08  34438899.739                         770.911          33.000    34438885.961   138671122.219         595.985          39.000  
C16  34321978.117                         317.180          40.000    34321970.970   138200344.132         245.399          40.000  
R07  19763472.135   105795545.935         971.732          39.000    19763466.306    82285310.447         756.709          38.000  
E33  21500383.938   112985279.3091         69.715          32.000    21500385.136    86573140.9571         52.748          35.000  
G18  18772939.829                       -1991.250          44.000    18772936.314    76872028.221       -1550.729          42.000  
E29  22038991.451                        -853.977          38.000    22038989.560                        -656.461          43.000  
G10  20968318.315                        2728.700          38.000    20968316.653                        2131.610          29.000  
E27  24563750.905                        1391.835          36.000    24563754.591                        1064.500          34.000  
G28  22181646.991   116565353.039        3290.413          37.000                                                                  
E21  25108642.332   131946805.4791       2116.360          34.000    25108640.969   101102091.8611       1621.647          35.000  
C06                                                                  33986165.880   136848210.385         391.523          43.000  
J04                                                                  37067787.870   151786393.9341        320.835          36.000  
> 2025 10 27 01 39 05.9920000  0 37                     
S37  34215357.843   179802919.0192        -80.883          38.000  
G12  21084241.979   110798439.5071       1921.751          35.000    21084242.785    86336449.4211       1500.734          31.000  
G23  18242778.330    95866447.0633       1266.596          35.000    18242773.645    74701110.616         985.608          40.000  
G24  18716319.383    98354928.7473      -2467.203          36.000    18716318.675    76640188.763       -1922.254          35.000  
G25  20996445.495   110337065.6043       2820.595          34.000    20996476.306    85977038.304        2198.436          35.000  
S28  35037927.576   184125551.4562        -81.064          44.000  
C25  20804201.676   108332937.4182      -1214.148          37.000                                                                  
C13  34671898.644   180545678.9381        826.385          36.000    34671892.582   139609340.849         637.374          40.000  
C41  21036386.720   109541985.9032       -211.020          34.000                                                                  
C39  33725946.629   175619857.426         157.919          43.000                                                                  
C09  35196545.184   183277647.4282        633.875          40.000    35196535.802   141721862.895         490.079          40.000  
C10  37650363.036   196055320.6092       -988.188          34.000    37650360.890   151602397.064        -763.547          38.000  
R16  18785620.658   100349413.5231       -874.939          39.000    18785619.463    78049541.279        -682.116          33.000  
R09  18308180.048    97764650.6951       2732.923          44.000    18308185.068    76039222.3782       2126.471          34.000  
R20  21651684.073                       -4139.121          27.000                                                                  
R21  19005232.126   101700834.4912      -3141.897          48.000    19005229.474    79100630.648       -2443.365          40.000  
R06  19041285.048                         -79.879          26.000                                                                  
R22  19362670.893                         753.763          30.000                                                                  
J07  34215362.202   179802941.2612        -80.412          35.000    34215360.151   140106181.878         -61.932          37.000  
J03  33685212.302   177016998.9511        -37.173          42.000    33685214.073   137935316.357         -28.899          41.000  
J02  34894162.847   183370126.8222        -61.873          40.000    34894184.482   142885851.6451        -48.971          39.000  
E26  22234007.431   116840497.330       -2389.336          44.000    22234006.308    89527127.3801      -1830.761          41.000  
S29  34619943.210   181929028.9142        -83.313          43.000  
C08  34438750.240   179331606.7751        780.059          33.000    34438736.473   138670520.205         601.741          41.000  
C16  34321915.851   178723218.5741        324.128          40.000    34321908.666   138200093.103         250.672          42.000  
R07  19763288.794   105794431.4913        981.484          42.000    19763282.986    82284546.701         763.680          35.000  
E33  21500374.143   112985228.537          75.238          30.000    21500370.589    86573082.885          57.545          37.000  
G18  18773317.279    98654414.2781      -1984.965          45.000    18773313.908    76873574.272       -1546.570          41.000  
E29  22039152.853   115816529.9201       -847.996          36.000    22039151.010    88742528.4591       -650.843          44.000  
G10  20967797.528   110186526.0461       2737.156          39.000    20967795.767    85859618.0251       2135.418          34.000  
E27  24563484.931   129081983.9861       1397.760          30.000    24563487.865    98906992.2911       1071.570          34.000  
G28  22181019.370   116562054.099        3298.845          37.000                                                                  
G32  21188679.462   111347261.2393       1112.931          36.000                                                                  
E21  25108241.754   131944700.597        2122.734          36.000    25108237.017   101100465.094        1627.597          35.000  
C06                                                                  33986067.391   136847813.597         396.677          40.000  
E07                                                                  24709033.443                       -1311.060          25.000  
J04                                                                  37067708.319   151786067.912         324.977          35.000  
> 2025 10 27 01 39 06.9920000  0 36                     
S37  34215372.830   179802997.1652        -81.041          40.000  
G12  21083875.676   110796514.415        1925.065          41.000    21083877.413    86334949.359        1498.703          31.000  
G23  18242537.017    95865178.7991       1264.982          34.000    18242532.344    74700122.684         985.229          38.000  
G24  18716788.630    98357395.171       -2469.348          37.000    18716788.134    76642110.647       -1923.680          36.000  
G25  20995908.515   110334243.1652       2822.539          34.000    20995941.020    85974837.912        2199.401          26.000  
S28  35037942.523   184125629.3522        -80.167          43.000  
C25  20804434.563   108334151.1062      -1214.647          42.000                                                                  
C13  34671739.674   180544851.684         825.278          35.000    34671733.707   139608701.061         637.490          38.000  
C41  21036426.883   109542195.2792       -211.459          38.000                                                                  
C39  33725915.900   175619697.739         157.763          40.000                                                                  
C09  35196422.991   183277010.7472        634.351          39.000    35196413.577   141721370.516         491.232          43.000  
C10  37650552.642   196056306.2852       -986.684          31.000    37650550.268   151603159.271        -761.788          38.000  
R16  18785784.398   100350288.039        -876.066          41.000    18785783.459    78050221.516        -683.371          30.000  
R09  18307668.125    97761916.335        2732.654          44.000    18307670.802    76037095.846        2124.567          32.000  
R21  19005818.761   101703974.8623      -3140.829          49.000    19005816.005    79103072.435       -2443.703          40.000  
R06  19041302.361   101608036.9933        -81.540          26.000                                                                  
R22  19362507.397   103358378.6223        753.682          36.000                                                                  
J07  34215377.059   179803019.396         -80.099          36.000    34215374.919   140106242.776         -62.893          38.000  
J03  33685218.987   177017033.946         -36.179          42.000    33685220.796   137935342.679         -27.747          41.000  
J02  34894173.304   183370186.7541        -60.885          34.000    34894191.231                         -50.147          26.000  
E26  22234462.214   116842885.018       -2390.388          44.000    22234460.351    89528956.900       -1831.217          39.000  
S29  34619958.601   181929109.5362        -83.044          42.000  
C08  34438600.322   179330826.366         778.901          36.000    34438586.636   138669916.744         602.409          39.000  
C16  34321853.096   178722892.113         324.169          40.000    34321846.004   138199840.762         250.435          38.000  
R07  19763104.977   105793447.4222        981.187          40.000    19763099.155    82283781.381         763.521          37.000  
E33  21500360.152   112985154.9921         74.280          30.000    21500355.933    86573023.439          57.128          34.000  
G18  18773694.422    98656396.670       -1984.683          45.000    18773691.162    76875119.017       -1546.679          40.000  
E29  22039314.165   115817377.564        -848.596          38.000    22039312.522    88743177.935        -652.136          43.000  
G10  20967276.253   110183786.470        2737.842          39.000    20967274.694    85857483.426        2133.786          35.000  
E27  24563218.785   129080585.986        1395.767          34.000    24563222.053    98905921.086        1070.427          33.000  
G28  22180391.260   116558753.301        3300.591          37.000                                                                  
G32  21188467.329   111346146.6773       1112.880          36.000                                                                  
E21  25107827.977   131942526.5151       2123.580          33.000    25107832.031   101098836.930        1627.560          36.000  
C06                                                                  33985968.505   136847415.313         396.793          42.000  
E07                                                                  24709361.743                       -1310.229          25.000  
J04                                                                  37067628.404   151785740.219         325.890          33.000  
> 2025 10 27 01 39 07.9920000  0 36                     
S37  34215387.739   179803075.2782        -75.536          38.000  
G12  21083509.392   110794589.487        1925.401          34.000    21083511.314                        1498.744          27.000  
G23  18242295.645    95863911.287        1267.780          37.000    18242291.106    74699134.978         989.244          36.000  
G24  18717258.102    98359861.975       -2465.780          38.000    18717257.643    76644032.852       -1921.295          36.000  
G25  20995372.357                        2825.384          29.000    20995404.302    85972670.6221       2201.983          26.000  
S28  35037957.210   184125707.3772        -77.407          43.000  
C25  20804667.706   108335365.3692      -1213.823          34.000                                                                  
C13  34671580.829   180544024.257         828.468          36.000    34671574.894   139608061.302         640.234          40.000  
C41  21036467.019   109542404.7422       -207.379          37.000                                                                  
C39  33725885.227   175619538.225         161.436          39.000                                                                  
C09  35196300.827   183276374.3122        637.107          38.000    35196291.423   141720878.427         491.979          40.000  
C10  37650741.962   196057293.0873       -986.457          24.000    37650739.519   151603921.364        -762.436          38.000  
R16  18785948.238   100351163.455        -875.122          39.000    18785947.381    78050902.355        -678.889          30.000  
R09  18307156.197    97759182.449        2735.871          42.000    18307159.142    76034969.519        2126.398          34.000  
R20  21653229.535                       -4132.659          25.000                                                                  
R21  19006405.448   101707114.7462      -3139.841          47.000    19006402.692    79105514.512       -2440.540          38.000  
R22  19362351.212   103357624.6392        754.372          40.000    19362380.922    80389325.3792        585.325          30.000  
J07  34215391.985   179803097.543         -75.552          34.000    34215389.694   140106303.687         -59.906          36.000  
J03  33685225.617   177017069.132         -34.253          38.000    33685227.247   137935370.128         -25.637          40.000  
J02  34894186.480   183370186.8043        -60.476          33.000    34894204.886   142885935.5011        -45.488          37.000  
E26  22234916.014   116845272.952       -2387.245          42.000    22234914.511    89530786.613       -1828.972          38.000  
S29  34619973.874   181929190.2252        -79.779          42.000  
C08  34438450.397   179330046.019         781.921          34.000    34438436.717   138669313.255         604.050          39.000  
C16  34321790.388   178722565.912         326.901          40.000    34321783.336   138199588.409         252.730          40.000  
R07  19762921.121   105792463.2522        985.363          42.000    19762915.433    82283015.866         765.405          34.000  
E33  21500345.969   112985077.919          78.151          30.000    21500341.241    86572964.420          59.521          32.000  
G18  18774071.816    98658379.673       -1982.412          43.000    18774068.508    76876664.286       -1544.688          40.000  
E29  22039475.351   115818225.152        -845.521          37.000    22039473.879    88743827.391        -648.407          44.000  
G10  20966755.045   110181046.930        2739.948          38.000    20966754.675    85855348.751        2134.282          36.000  
E27  24562952.938   129079188.082        1398.163          31.000    24562956.575    98904850.041        1069.478          31.000  
G28  22179763.216   116555452.893        3299.645          32.000                                                                  
G32  21188257.080   111345032.7492       1115.916          33.000                                                                  
E21  25107433.480   131940401.400        2124.823          33.000    25107428.332   101097208.464        1628.794          33.000  
C06                                                                  33985869.637   136847017.146         398.950          35.000  
E07                                                                  24709686.014                       -1310.906          24.000  
J04                                                                  37067548.501   151785412.603         328.033          34.000  
> 2025 10 27 01 39 08.9920000  0 35                     
S37  34215402.514   179803152.5962        -77.582          38.000  
G12  21083142.998   110792663.624        1925.030          37.000    21083145.941    86331957.8161       1499.143          28.000  
G23  18242054.392    95862643.702        1268.516          39.000    18242049.822    74698147.304         988.372          36.000  
G24  18717728.407    98362328.728       -2467.179          36.000    18717727.057    76645954.952       -1922.020          35.000  
G25  20994838.748                        2827.804          22.000    20994868.415                        2201.179          25.000  
S28  35037972.054   184125785.0352        -77.461          43.000  
C25  20804900.796   108336578.8271      -1213.884          38.000                                                                  
C13  34671421.857   180543196.735         827.100          36.000    34671416.072   139607421.362         640.676          40.000  
C41  21036507.200   109542613.685        -208.104          34.000                                                                  
C39  33725854.518   175619378.356         159.790          39.000                                                                  
C09  35196178.474   183275737.263         637.014          39.000    35196169.083   141720385.788         493.432          39.000  
C10  37650931.028   196058277.481        -983.521          31.000    37650928.634   151604682.731        -760.010          37.000  
R16  18786112.188   100352038.870        -876.226          34.000    18786111.478    78051583.233        -680.490          36.000  
R09  18306644.185    97756448.142        2733.502          41.000    18306648.872    76032842.913        2125.964          35.000  
R21  19006992.116   101710254.589       -3140.293          47.000    19006989.385    79107956.628       -2442.329          36.000  
R22  19362198.024   103356871.5622        753.397          43.000    19362219.513    80388739.6442        587.010          37.000  
J07  34215406.813   179803174.890         -78.238          34.000    34215404.533   140106363.989         -60.303          40.000  
J03  33685232.141   177017103.523         -35.680          38.000    33685233.741   137935396.861         -27.415          36.000  
J02  34894199.043   183370245.7962        -58.872          35.000    34894219.023   142885980.313         -42.381          35.000  
E26  22235370.535   116847660.380       -2387.729          42.000    22235368.990    89532615.980       -1830.018          41.000  
S29  34619989.130   181929270.4762        -80.127          42.000  
C08  34438300.440   179329265.186         782.334          33.000    34438286.803   138668709.559         603.533          38.000  
C16  34321727.783   178722239.172         326.223          39.000    34321720.627   138199335.739         253.025          40.000  
R07  19762737.247   105791478.4701        985.364          40.000    19762731.694    82282250.340         766.484          38.000  
E33  21500325.582   112985001.158          76.361          28.000    21500326.471    86572905.533          59.947          32.000  
G18  18774449.131    98660362.688       -1982.976          42.000    18774445.955    76878209.403       -1545.342          39.000  
E29  22039636.673   115819072.641        -846.695          37.000    22039635.240    88744476.707        -648.796          44.000  
G10  20966233.769   110178307.230        2740.117          34.000    20966234.328    85853213.835        2136.350          37.000  
E27  24562686.775   129077788.966        1397.570          30.000    24562690.345    98903778.098        1070.355          31.000  
G28  22179135.196   116552151.801        3300.614          37.000                                                                  
E19  22224035.276                         441.800          18.000                                                                  
G32  21188043.898   111343918.7372       1115.122          36.000                                                                  
E21  25107037.067                        2125.246          22.000    25107019.992   101095579.044        1628.766          28.000  
C06                                                                  33985770.495   136846618.688         398.239          40.000  
J04                                                                  37067468.455   151785084.367         328.545          35.000  
> 2025 10 27 01 39 09.9920000  0 36                     
S37  34215416.973   179803228.4732        -78.233          40.000  
G12  21082776.430   110790736.741        1924.855          37.000    21082779.090    86330456.282        1499.921          33.000  
G23  18241812.942    95861375.152        1266.155          37.000    18241808.467    74697158.850         985.850          36.000  
G24  18718197.754    98364794.591       -2467.572          35.000    18718196.271    76647876.456       -1923.101          35.000  
G25  20994306.711                        2824.685          29.000    20994326.100                        2203.954          26.000  
S28  35037986.579   184125861.3952        -77.684          41.000  
C25  20805133.734   108337791.955       -1214.988          35.000                                                                  
C13  34671262.581   180542367.757         827.116          34.000    34671256.922   139606780.423         638.865          39.000  
C41  21036547.169   109542821.470        -208.895          31.000                                                                  
C39  33725823.507   175619217.140         158.959          38.000                                                                  
C09  35196055.932   183275098.988         636.229          39.000    35196046.502   141719892.212         492.405          43.000  
C10  37651119.856   196059260.779        -984.512          34.000    37651117.480   151605443.149        -761.637          35.000  
R16  18786275.951   100352913.813        -876.149          38.000    18786275.108    78052263.663        -681.710          30.000  
R09  18306132.036    97753712.855        2733.448          43.000    18306135.332    76030715.418        2125.708          34.000  
R20  21654775.099                       -4134.834          25.000                                                                  
R21  19007578.643   101713393.435       -3140.642          48.000    19007575.896    79110397.919       -2442.012          39.000  
R22  19362055.132   103356118.1892        750.207          38.000    19362062.810    80388153.6202        584.577          37.000  
J07  34215421.199   179803250.763         -78.253          36.000    34215418.898   140106423.079         -61.334          38.000  
J03  33685238.434   177017136.448         -34.625          42.000    33685239.240   137935422.678         -27.750          33.000  
J02  34894210.234   183370303.7182        -59.488          32.000    34894225.186   142886025.249         -47.565          29.000  
E26  22235824.927   116850046.644       -2388.481          42.000    22235823.123    89534444.375       -1830.173          41.000  
S29  34620004.020   181929349.2822        -80.884          41.000  
C08  34438150.367   179328483.123         779.730          35.000    34438136.532   138668104.767         603.979          39.000  
C16  34321664.797   178721911.204         325.276          39.000    34321657.691   138199082.186         251.442          39.000  
R07  19762553.148   105790492.962         984.586          40.000    19762547.571    82281483.842         765.882          38.000  
E33  21500310.114   112984923.366          75.842          28.000    21500311.530    86572846.005          58.258          32.000  
G18  18774826.381    98662344.757       -1984.200          43.000    18774823.031    76879753.889       -1546.377          39.000  
E29  22039797.653   115819918.779        -847.533          38.000    22039796.078    88745125.084        -650.237          42.000  
G10  20965712.325   110175566.463        2740.563          36.000    20965711.362    85851078.179        2134.081          34.000  
E27  24562420.120   129076389.077        1397.187          31.000    24562424.069    98902705.228        1071.310          31.000  
G28  22178506.769   116548849.773        3301.176          39.000                                                                  
E19  22223948.077                         459.851          21.000                                                                  
G32  21187831.902   111342807.5393       1114.893          33.000                                                                  
E21  25106633.218                        2127.007          30.000    25106643.027                        1631.592          34.000  
C06                                                                  33985671.351   136846219.103         397.783          40.000  
J04                                                                  37067388.057   151784754.885         328.429          34.000  
> 2025 10 27 01 39 10.9920000  0 37                     
S37  34215431.531   179803304.7262        -75.648          38.000  
G12  21082409.752   110788810.469        1925.614          36.000    21082412.790    86328955.3201       1500.402          33.000  
G23  18241571.589    95860107.083        1268.828          36.000    18241567.144    74696170.721         987.949          36.000  
G24  18718666.854    98367261.161       -2467.155          33.000    18718665.676    76649798.552       -1923.179          36.000  
G25  20993773.319   110323022.7773       2825.182          29.000    20993792.993                        2198.800          26.000  
S28  35038001.218   184125937.4833        -75.997          39.000  
C25  20805366.842   108339005.920       -1213.784          37.000                                                                  
C13  34671103.414   180541539.002         829.612          34.000    34671097.668   139606139.526         641.153          38.000  
C41  21036587.355   109543029.562        -209.860          31.000                                                                  
C39  33725792.663   175619056.422         161.132          38.000                                                                  
C09  35195933.423   183274461.147         638.917          39.000    35195923.999   141719399.017         493.604          40.000  
C10  37651308.836   196060244.299        -982.640          34.000    37651306.413   151606203.628        -759.302          37.000  
R16  18786439.907   100353789.866        -876.434          44.000    18786439.417    78052945.652        -685.787          28.000  
R09  18305620.027    97750978.523        2735.107          43.000    18305623.345    76028588.775        2126.355          35.000  
R20  21655548.609                       -4119.844          24.000                                                                  
R21  19008165.372   101716533.038       -3138.665          49.000    19008162.555    79112839.861       -2441.632          39.000  
R06  19041361.569                         -74.495          23.000                                                                  
R22  19361911.195   103355365.6012        752.483          41.000    19361914.321    80387568.1932        586.336          33.000  
J07  34215435.707   179803326.984         -75.168          33.000    34215433.252   140106482.506         -58.164          38.000  
J03  33685244.801   177017169.997         -33.150          42.000    33685245.652   137935448.713         -25.068          41.000  
J02  34894220.652   183370362.0262        -57.125          35.000    34894233.707   142886070.563         -42.906          36.000  
E26  22236279.132   116852433.575       -2386.165          42.000    22236277.235    89536273.338       -1828.248          42.000  
S29  34620019.069   181929428.3472        -78.192          41.000  
C08  34438000.184   179327701.250         782.726          35.000    34437986.493   138667500.166         604.362          39.000  
C16  34321601.865   178721583.681         328.304          38.000    34321594.768   138198828.875         253.845          40.000  
R07  19762368.968   105789507.536         985.529          44.000    19762363.461    82280717.303         766.898          38.000  
E33  21500302.224   112984846.275          78.995          27.000    21500296.768    86572786.981          59.398          33.000  
G18  18775203.732    98664327.685       -1982.257          44.000    18775200.274    76881299.048       -1544.954          39.000  
E29  22039958.916   115820765.083        -845.843          36.000    22039956.961    88745773.511        -648.398          41.000  
G10  20965190.790   110172825.779        2741.650          36.000    20965190.291    85848942.624        2136.008          34.000  
E27  24562153.755   129074989.680        1400.924          31.000    24562157.735    98901633.046        1072.783          31.000  
G28  22177878.585   116545548.257        3303.087          38.000                                                                  
E19  22223860.237                         438.683          21.000                                                                  
G32  21187620.522                        1112.746          23.000                                                                  
E21  25106231.495                        2129.563          22.000    25106237.005   101092416.1061       1633.125          34.000  
C06                                                                  33985572.301   136845819.937         399.940          39.000  
J04                                                                  37067307.700   151784425.692         329.095          33.000  
> 2025 10 27 01 39 11.9920000  0 36                     
S37  34215446.296   179803382.2792        -80.327          38.000  
G12  21082043.425   110786885.658        1922.511          36.000    21082044.078    86327455.492        1498.098          33.000  
G23  18241330.619    95858840.615        1263.595          36.000    18241326.053    74695183.904         983.968          37.000  
G24  18719136.579    98369729.456       -2472.922          37.000    18719135.441    76651721.736       -1927.180          38.000  
G25  20993240.601   110320223.2492       2819.885          33.000    20993256.072                        2197.995          26.000  
S28  35038015.987   184126015.2492        -80.764          41.000  
C25  20805600.199   108340221.693       -1220.879          38.000                                                                  
C13  34670944.534   180540711.406         823.095          34.000    34670938.769   139605499.530         637.968          36.000  
C41  21036627.634   109543238.954        -215.208          29.000                                                                  
C39  33725762.110   175618897.137         156.507          36.000                                                                  
C09  35195811.171   183273824.704         633.843          39.000    35195801.793   141718906.853         490.136          37.000  
C10  37651497.824   196061228.824        -987.291          31.000    37651495.491   151606964.864        -764.486          37.000  
R16  18786604.315   100354668.069        -883.810          43.000    18786604.553                1       -693.471          29.000  
R09  18305108.296    97748246.077        2729.620          45.000    18305111.474    76026463.438        2123.059          32.000  
R21  19008752.383   101719674.274       -3144.762          48.000    19008749.627    79115283.005       -2445.687          40.000  
R06  19041376.370                         -83.813          24.000                                                                  
R22  19361769.956   103354614.8022        745.394          42.000    19361769.750    80386984.3462        580.756          36.000  
J07  34215450.538   179803404.632         -81.574          34.000    34215447.859   140106542.962         -62.560          37.000  
J03  33685251.365   177017204.947         -38.685          42.000    33685252.005   137935475.947         -28.902          36.000  
J02  34894231.970   183370421.6052        -62.489          37.000    34894243.159   142886117.034         -48.875          37.000  
E26  22236733.447   116854822.160       -2392.396          42.000    22236731.855    89538103.575       -1833.598          41.000  
S29  34620034.438   181929508.5992        -82.080          40.000  
C08  34437850.388   179326920.601         776.667          32.000    34437836.623   138666896.512         600.611          38.000  
C16  34321539.269   178721257.585         323.080          40.000    34321532.169   138198576.797         249.539          41.000  
R07  19762185.142   105788522.997         979.663          43.000    19762179.657    82279951.628         760.921          37.000  
E33  21500282.654   112984746.9381         71.096          27.000    21500282.365    86572729.238          54.227          33.000  
G18  18775581.432    98666312.451       -1987.491          42.000    18775577.949    76882845.615       -1549.075          40.000  
E29  22040120.173   115821612.588        -852.747          36.000    22040118.415    88746422.925        -653.022          43.000  
G10  20964669.431   110170086.099        2734.821          36.000    20964668.664    85846807.739        2130.640          34.000  
E27  24561887.997   129073591.883        1394.098          29.000    24561891.627    98900561.976        1067.124          30.000  
G28  22177250.663   116542248.006        3295.901          33.000                                                                  
E19  22223773.242                         449.450          19.000                                                                  
G32  21187409.055                        1099.731          30.000    21187404.944                         862.983          24.000  
E21  25105820.752                        2121.050          24.000    25105836.170   101090785.384        1626.283          33.000  
C06                                                                  33985473.505   136845421.877         395.343          42.000  
J04                                                                  37067227.467   151784097.286         326.201          34.000  
> 2025 10 27 01 39 12.9920000  0 37                     
S37  34215460.889   179803458.635         -78.456          37.000  
G12  21081676.944   110784959.883        1924.639          38.000    21081673.758    86325954.904        1497.707          29.000  
G23  18241089.475    95857573.273        1265.616          39.000    18241084.945    74694196.319         986.344          37.000  
G24  18719606.063    98372196.940       -2468.799          38.000    18719604.966    76653644.491       -1925.041          36.000  
G25  20992704.998                        2829.712          28.000    20992714.954    85961658.1761       2204.279          27.000  
S28  35038030.484   184126091.729         -78.589          43.000  
C25  20805833.477   108341436.587       -1216.784          41.000                                                                  
C13  34670785.308   180539882.496         827.128          36.000    34670779.613   139604858.590         638.901          41.000  
C41  21036666.278   109543441.0673       -209.708          29.000                                                                  
C39  33725731.360   175618736.745         158.022          40.000                                                                  
C09  35195688.816   183273187.123         635.583          39.000    35195679.377   141718413.860         491.889          42.000  
C10  37651686.570   196062211.884        -984.629          33.000    37651684.349   151607725.073        -761.375          37.000  
R16  18786768.499   100355545.842        -879.648          39.000    18786767.611    78054308.8143       -685.223          34.000  
R09  18304596.478    97745512.952        2730.896          43.000    18304599.483    76024337.624        2123.608          37.000  
R21  19009339.283   101722814.624       -3142.412          48.000    19009336.456    79117725.515       -2443.695          39.000  
R06  19041391.026                         -77.642          25.000                                                                  
R22  19361628.862   103353863.537         747.752          46.000    19361627.900    80386400.0342        582.872          33.000  
J07  34215464.855   179803480.919         -78.645          34.000    34215462.344   140106602.413         -60.512          39.000  
J03  33685257.646   177017238.683         -35.826          42.000    33685258.255   137935502.183         -25.821          37.000  
J02  34894242.891   183370479.4391        -59.742          35.000    34894252.130   142886162.363         -45.644          37.000  
E26  22237187.775   116857209.717       -2389.476          42.000    22237186.300    89539932.940       -1831.123          41.000  
S29  34620049.402   181929587.728         -80.841          42.000  
C08  34437700.339   179326138.745         779.760          36.000    34437686.459   138666291.896         603.096          39.000  
C16  34321476.480   178720930.413         324.943          38.000    34321469.338   138198323.711         251.651          41.000  
R07  19762001.025   105787537.076         982.534          43.000    19761995.610    82279184.845         764.919          39.000  
E33  21500273.068   112984696.8641         73.677          27.000    21500268.151    86572670.962          56.001          33.000  
G18  18775958.943    98668296.503       -1986.572          44.000    18775955.439    76884391.592       -1547.175          41.000  
E29  22040281.158   115822458.789        -848.063          37.000    22040279.676    88747071.309        -650.385          43.000  
G10  20964147.956   110167345.017        2738.355          39.000    20964147.041    85844671.918        2134.239          34.000  
E27  24561623.743   129072202.9451       1398.864          28.000    24561625.180    98899490.187        1071.468          23.000  
G28  22176622.323   116538946.495        3299.765          34.000                                                                  
E19  22223684.652                         452.491          20.000    22223639.960    89485388.6551        341.408          29.000  
G32  21187193.768                        1103.754          31.000    21187189.688                         862.297          25.000  
E21  25105420.473                        2126.066          25.000    25105427.168   101089153.274        1632.594          29.000  
C06                                                                  33985374.504   136845023.001         397.582          38.000  
E07                                                                  24711319.713    99502244.2501      -1305.289          28.000  
J04                                                                  37067146.952   151783768.013         327.297          34.000  
> 2025 10 27 01 39 13.9920000  0 36                     
S37  34215475.111   179803534.146         -77.459          39.000  
G12  21081310.384   110783033.639        1925.247          40.000    21081309.639    86324453.961        1499.569          32.000  
G23  18240848.261    95856305.528        1265.727          37.000    18240843.562    74693208.437         985.934          39.000  
G24  18720075.574    98374664.052       -2468.562          38.000    18720074.327    76655566.829       -1922.950          32.000  
G25  20992160.788                        2827.709          27.000    20992178.038                        2203.058          25.000  
S28  35038044.975   184126167.573         -77.942          43.000  
C25  20806066.793   108342651.321       -1215.890          40.000                                                                  
C13  34670626.033   180539052.979         827.555          36.000    34670620.406   139604217.151         640.399          39.000  
C41  21036707.308                        -207.872          27.000                                                                  
C39  33725700.437   175618575.709         159.614          41.000                                                                  
C09  35195566.287   183272548.958         636.099          40.000    35195556.877   141717920.343         492.243          41.000  
C10  37651875.235   196063194.335        -983.589          36.000    37651873.029   151608484.730        -761.710          37.000  
R16  18786932.799   100356423.657        -879.331          43.000    18786932.463    78054991.5112       -683.768          32.000  
R09  18304084.643    97742779.513        2730.841          46.000    18304087.290    76022211.694        2125.165          35.000  
R21  19009926.108   101725954.776       -3142.286          49.000    19009923.181    79120167.821       -2444.305          41.000  
R22  19361487.914   103353112.539         750.598          44.000    19361486.246    80385816.0352        580.890          34.000  
J07  34215479.106   179803556.435         -78.050          36.000    34215476.676   140106661.275         -59.528          39.000  
J03  33685263.909   177017271.859         -34.437          42.000    33685264.343   137935528.104         -27.815          35.000  
J02  34894253.924   183370541.4743        -58.644          39.000    34894261.477   142886207.327         -45.936          34.000  
E26  22237641.914   116859596.827       -2388.885          42.000    22237640.327    89541762.035       -1830.382          40.000  
S29  34620064.254   181929666.059         -80.420          42.000  
C08  34437549.985   179325356.138         781.942          36.000    34437536.148   138665686.764         604.238          37.000  
C16  34321413.517   178720602.619         325.460          40.000    34321406.455   138198070.319         252.109          39.000  
R07  19761816.872   105786550.615         984.793          41.000    19761811.259    82278417.567         766.320          41.000  
E33  21500258.719                          73.334          25.000    21500253.683    86572612.382          56.774          32.000  
G18  18776336.403    98670280.356       -1985.954          44.000    18776333.104    76885937.444       -1547.909          41.000  
E29  22040442.068   115823304.371        -846.653          37.000    22040440.551    88747719.246        -649.034          43.000  
G10  20963626.298   110164603.535        2739.565          37.000    20963625.311    85842535.755        2135.442          34.000  
E27  24561357.613                        1398.930          26.000    24561360.907                        1071.432          23.000  
G28  22175993.789   116535644.791        3300.206          34.000                                                                  
E19  22223598.936                         445.261          20.000    22223554.965    89485045.176         341.531          33.000  
G32  21186957.533                        1103.760          39.000    21186972.835                         858.393          26.000  
E21  25105028.568                        2129.458          24.000    25105045.164   101087523.169        1628.562          33.000  
C06                                                                  33985275.371   136844623.611         398.246          41.000  
E07                                                                  24711642.123    99503541.9331      -1305.612          28.000  
J04                                                                  37067066.319   151783437.915         329.219          35.000  
> 2025 10 27 01 39 14.9920000  0 38                     
S37  34215489.574   179803610.507         -75.791          39.000  
G12  21080943.951   110781108.124        1926.188          38.000    21080942.752    86322953.398        1503.424          31.000  
G23  18240607.173    95855038.977        1269.009          35.000    18240602.607    74692221.551         988.552          37.000  
G24  18720545.416    98377132.485       -2467.029          33.000    18720544.038    76657490.380       -1923.184          30.000  
G25  20991628.088                        2821.140          25.000    20991637.168                        2198.282          25.000  
S28  35038059.510   184126244.257         -76.937          44.000  
C25  20806300.275   108343867.208       -1214.637          37.000                                                                  
C13  34670466.901   180538224.419         829.589          37.000    34670461.280   139603576.362         642.882          37.000  
C41  21036749.247                        -208.178          24.000                                                                  
C39  33725669.850   175618415.789         161.588          39.000                                                                  
C09  35195443.931   183271911.829         637.351          40.000    35195434.477   141717427.738         492.335          40.000  
C10  37652064.110   196064177.354        -983.464          33.000    37652061.814   151609244.890        -761.180          39.000  
R16  18787097.368   100357303.039        -879.343          43.000    18787096.423                        -679.639          27.000  
R09  18303572.924    97740047.309        2732.745          42.000    18303575.563    76020086.652        2124.854          35.000  
R20  21658642.354   115818493.6673      -4132.567          27.000                                                                  
R21  19010513.171   101729096.337       -3141.688          48.000    19010510.227    79122611.265       -2443.528          40.000  
R06  19041418.269                         -77.248          26.000                                                                  
R22  19361347.401   103352363.435         749.615          41.000    19361345.938    80385233.323         581.876          38.000  
J07  34215493.582   179803632.752         -75.200          36.000    34215491.090   140106720.756         -59.361          39.000  
J03  33685270.297   177017305.796         -33.763          43.000    33685270.659   137935554.473         -25.496          37.000  
J02  34894265.040   183370599.5952        -58.600          36.000    34894272.105   142886252.457         -45.354          35.000  
E26  22238095.965   116861985.061       -2387.295          41.000    22238094.415    89543591.983       -1829.849          41.000  
S29  34620079.409   181929745.400         -78.894          43.000  
C08  34437399.852   179324574.492         783.373          35.000    34437385.925   138665082.356         606.109          37.000  
C16  34321350.687   178720275.927         327.491          40.000    34321343.671   138197817.640         253.198          40.000  
R07  19761632.661   105785565.152         983.987          39.000    19761627.278    82277651.009         766.049          36.000  
E33  21500243.092                          70.750          25.000    21500239.425    86572555.201          57.971          28.000  
G18  18776714.224    98672265.663       -1984.893          45.000    18776711.053    76887484.419       -1546.577          44.000  
E29  22040603.046   115824150.992        -844.725          38.000    22040601.630    88748367.955        -647.859          43.000  
G10  20963104.925   110161862.925        2739.044          35.000    20963103.717    85840400.115        2134.650          38.000  
E27  24561093.320                        1396.111          25.000    24561102.965                        1075.708          24.000  
G28  22175365.629   116532344.112        3298.910          37.000                                                                  
E19  22223504.106                         446.802          23.000    22223469.136    89484702.581         343.124          34.000  
G32  21186716.882   111336948.0533       1107.334          42.000    21186730.862    86756120.1581        861.529          32.000  
E21  25104629.338                        2127.578          23.000    25104623.290                        1629.104          23.000  
C06                                                                  33985176.438   136844225.022         399.193          40.000  
E07                                                                  24711969.428    99504847.214       -1306.270          28.000  
J04                                                                  37066985.785   151783108.401         331.899          34.000  
> 2025 10 27 01 39 15.9920000  0 38                     
S37  34215504.209   179803687.359         -77.781          39.000  
G12  21080577.689   110779183.442        1922.918          39.000    21080580.886    86321453.773        1497.138          31.000  
G23  18240366.472    95853773.475        1264.808          36.000    18240361.811    74691235.488         985.762          36.000  
G24  18721015.343    98379602.008       -2468.089          34.000    18721014.014    76659414.677       -1924.599          29.000  
G25  20991096.815                        2819.183          31.000    20991100.568    85955046.9611       2197.594          26.000  
S28  35038074.161   184126321.447         -78.139          44.000  
C25  20806534.057   108345084.280       -1218.448          37.000                                                                  
C13  34670307.882   180537396.237         827.775          36.000    34670302.330   139602936.069         641.503          37.000  
C41  21036791.506                        -207.304          24.000                                                                  
C39  33725639.266   175618256.665         158.009          39.000                                                                  
C09  35195321.734   183271275.223         635.812          39.000    35195312.322   141716935.564         490.940          38.000  
C10  37652253.106   196065160.604        -984.227          33.000    37652250.651   151610005.083        -761.551          39.000  
R16  18787262.284   100358183.769        -881.002          38.000    18787262.545    78056364.6973       -685.928          33.000  
R09  18303061.510    97737316.264        2729.590          41.000    18303064.171    76017962.468        2123.944          38.000  
R20  21659409.682   115822597.3133      -4133.014          26.000                                                                  
R21  19011100.517   101732238.752       -3143.471          48.000    19011097.493    79125055.349       -2445.116          36.000  
R06  19041432.504   101608731.9663        -78.344          26.000                                                                  
R22  19361207.075   103351615.610         747.564          44.000    19361205.823    80384651.674         581.379          38.000  
J07  34215508.288   179803709.635         -77.231          35.000    34215505.571   140106780.705         -61.281          38.000  
J03  33685276.835   177017340.401         -35.915          41.000    33685277.104   137935581.520         -27.673          36.000  
J02  34894276.119   183370658.1372        -59.219          36.000    34894282.973   142886298.111         -47.292          37.000  
E26  22238550.831   116864374.084       -2390.348          41.000    22238548.769    89545422.512       -1831.123          42.000  
S29  34620094.607   181929825.203         -80.579          43.000  
C08  34437249.772   179323793.409         782.384          35.000    34437236.008   138664478.442         603.207          39.000  
C16  34321287.963   178719949.895         324.951          41.000    34321281.090   138197565.546         252.297          40.000  
R07  19761448.612   105784579.822         986.061          40.000    19761443.195    82276884.728         768.140          35.000  
E33  21500228.273                          74.543          24.000    21500225.491    86572498.550          55.951          34.000  
G18  18777092.345    98674252.009       -1987.625          44.000    18777089.329    76889032.172       -1548.389          41.000  
E29  22040764.449   115824998.187        -847.984          36.000    22040763.060    88749017.096        -649.314          42.000  
G10  20962583.335   110159122.682        2741.735          31.000    20962582.261    85838264.956        2135.119          36.000  
E27  24560830.024                        1398.169          23.000    24560839.301                        1074.059          24.000  
G28  22174737.668   116529043.883        3299.164          35.000                                                                  
E19  22223389.003   116784696.8161        445.859          37.000    22223384.295    89484360.560         342.099          39.000  
G32  21186503.074   111335842.1542       1105.089          42.000    21186507.835    86755258.380         861.126          37.000  
E21  25104223.308                        2127.715          30.000    25104211.238   101084254.9441       1632.963          34.000  
C06                                                                  33985077.643   136843827.025         397.277          40.000  
E07                                                                  24712295.378    99506152.858       -1305.064          31.000  
J04                                                                  37066905.457   151782779.420         328.372          35.000  
> 2025 10 27 01 39 16.9920000  0 38                     
S37  34215518.961   179803764.323         -84.654          37.000  
G12  21080211.575   110777259.362        1916.053          33.000    21080217.930    86319968.4391       1493.744          30.000  
G23  18240125.638    95852508.080        1258.308          37.000    18240121.020    74690249.355         979.860          36.000  
G24  18721485.425                       -2477.113          23.000    18721483.781                       -1926.947          28.000  
G25  20990572.661                        2823.939          25.000    20990561.371                        2199.076          26.000  
S28  35038088.777   184126398.288         -83.052          42.000  
C25  20806767.890   108346302.086       -1226.579          38.000                                                                  
C13  34670148.978   180536568.131         819.294          35.000    34670143.294   139602295.662         635.080          39.000  
C41  21036832.768                        -204.048          23.000                                                                  
C39  33725608.759   175618097.411         151.943          40.000                                                                  
C09  35195199.524   183270638.589         630.787          39.000    35195190.040   141716443.138         487.449          43.000  
C10  37652442.014   196066143.688        -989.095          34.000    37652439.431   151610765.157        -763.418          36.000  
R16  18787427.450   100359065.876        -890.610          41.000    18787428.397    78057054.5502       -692.103          31.000  
R09  18302550.233    97734585.930        2721.008          42.000    18302552.574    76015838.833        2116.663          33.000  
R20  21660172.172   115826673.9452      -4135.006          32.000                                                                  
R21  19011687.730   101735381.418       -3148.918          48.000    19011684.763    79127499.638       -2449.075          40.000  
R06  19041442.194                         -82.849          25.000                                                                  
R22  19361066.814   103350868.020         743.867          40.000    19361065.684    80384070.407         576.699          38.000  
J07  34215522.913   179803786.590         -84.228          34.000    34215520.052   140106840.580         -66.094          36.000  
J03  33685283.473   177017375.158         -41.579          38.000    33685283.469   137935608.560         -34.117          32.000  
J02  34894287.302   183370717.0012        -65.634          33.000    34894294.024   142886343.945         -49.566          37.000  
E26  22239005.164   116866763.370       -2395.831          40.000    22239003.977    89547253.234       -1836.442          40.000  
S29  34620109.815   181929904.673         -85.516          41.000  
C08  34437099.844   179323012.393         773.313          32.000    34437085.961   138663874.317         597.500          35.000  
C16  34321225.341   178719623.865         318.704          40.000    34321218.466   138197313.476         246.656          40.000  
R07  19761264.570   105783594.267         979.771          39.000    19761259.125    82276118.236         760.849          40.000  
E33  21500215.512                          69.446          24.000    21500211.456    86572441.870          53.449          26.000  
G18  18777470.365    98676238.688       -1993.687          41.000    18777467.445    76890580.206       -1553.442          39.000  
E29  22040925.388   115825845.239        -854.885          37.000    22040924.060    88749666.096        -654.764          39.000  
G10  20962061.921   110156382.543        2731.926          37.000    20962060.813    85836129.687        2129.094          38.000  
E27  24560563.379                        1394.248          22.000    24560576.437                        1059.517          23.000  
G28  22174109.755   116525743.717        3294.369          37.000                                                                  
E07  24712629.174                       -1710.026          29.000    24712617.839    99507458.006       -1308.777          26.000  
E19  22223300.371   116784250.143         441.242          37.000    22223299.779    89484018.328         337.303          42.000  
G32  21186292.324   111334735.7542       1102.954          43.000    21186293.914    86754396.377         857.989          38.000  
E21  25103820.861                        2121.304          22.000    25103806.795   101082623.014        1631.127          28.000  
C06                                                                  33984978.752   136843428.909         392.668          39.000  
J04                                                                  37066825.038   151782450.186         324.108          33.000  
> 2025 10 27 01 39 17.9920000  0 38                     
S37  34215533.303   179803840.217         -73.813          39.000  
G12  21079845.145   110775334.495        1926.502          38.000    21079848.251    86318468.637        1500.269          34.000  
G23  18239884.744    95851242.020        1266.675          38.000    18239880.111    74689262.842         987.512          39.000  
G24  18721956.900    98384547.2053      -2468.522          26.000    18721955.291                       -1919.377          26.000  
G25  20990020.951   110303303.6413       2825.997          31.000    20990026.255    85950648.0301       2202.714          26.000  
S28  35038103.167   184126474.134         -73.444          38.000  
C25  20807001.422   108347519.293       -1216.094          37.000                                                                  
C13  34669989.633   180535738.823         831.300          35.000    34669984.064   139601654.395         642.604          40.000  
C41  21036872.060                        -206.141          22.000                                                                  
C39  33725578.063   175617937.328         162.205          40.000                                                                  
C09  35195077.090   183270001.119         640.279          40.000    35195067.611   141715950.204         495.162          42.000  
C10  37652630.709   196067125.665        -979.732          34.000    37652628.018   151611524.527        -757.532          38.000  
R16  18787592.392   100359947.613        -880.828          45.000    18787592.961    78057738.2883       -686.319          37.000  
R09  18302038.856    97731854.936        2733.197          47.000    18302040.724    76013714.704        2125.085          38.000  
R20  21660941.352   115830787.8203      -4129.687          28.000    21660984.877                       -3212.230          25.000  
R21  19012274.752   101738523.323       -3139.004          42.000    19012271.820    79129943.419       -2441.598          39.000  
R06  19041454.182   101608847.5213        -76.630          27.000                                                                  
R22  19360926.718   103350120.570         751.543          41.000    19360925.417    80383488.833         583.034          36.000  
J07  34215537.467   179803862.461         -73.255          35.000    34215534.343   140106899.770         -57.572          40.000  
J03  33685289.867   177017409.100         -31.986          43.000    33685289.753   137935634.931         -24.322          40.000  
J02  34894298.244   183370774.9772        -56.621          38.000    34894304.823   142886389.091         -44.850          37.000  
E26  22239460.010   116869151.885       -2385.505          42.000    22239458.554    89549083.457       -1828.482          43.000  
S29  34620124.723   181929983.134         -75.623          41.000  
C08  34436949.634   179322230.344         782.773          35.000    34436935.799   138663269.588         607.348          39.000  
C16  34321162.476   178719296.911         330.186          38.000    34321155.608   138197060.718         254.093          40.000  
R07  19761080.263   105782607.657         988.413          39.000    19761074.791    82275350.760         769.336          34.000  
E33  21500203.491                          86.313          25.000    21500196.238    86572380.2741         58.730          34.000  
G18  18777848.337    98678224.928       -1984.053          43.000    18777845.132    76892128.011       -1545.441          42.000  
E29  22041086.214   115826691.229        -843.924          34.000    22041084.910    88750314.328        -646.497          40.000  
G10  20961540.252   110153640.922        2745.060          33.000    20961539.089    85833993.404        2137.219          36.000  
G28  22173481.555   116522442.797        3304.503          37.000                                                                  
E07  24712950.706                       -1705.116          22.000                                                                  
E19  22223212.310   116783802.567         449.129          32.000    22223214.205    89483675.347         344.266          37.000  
G32  21186081.020   111333606.2743       1108.140          41.000    21186083.670    86753533.666         864.917          38.000  
E21  25103412.682                        2138.304          22.000    25103403.197   101081001.3951       1634.100          29.000  
C06                                                                  33984879.802   136843030.215         400.995          42.000  
E27                                                                  24560306.955                        1077.719          22.000  
J04                                                                  37066744.551   151782120.314         331.111          36.000  
> 2025 10 27 01 39 18.9920000  0 38                     
S37  34215547.768   179803915.979         -78.434          40.000  
G12  21079479.105   110773410.354        1924.055          38.000    21079483.955    86316969.347        1498.641          34.000  
G23  18239643.923    95849976.110        1263.236          39.000    18239639.241    74688276.388         985.875          38.000  
G24  18722426.739    98387016.9611      -2472.210          31.000    18722424.787                       -1925.792          23.000  
G25  20989465.293   110300384.5522       2823.480          36.000    20989482.196                        2200.080          28.000  
S28  35038117.403   184126548.697         -77.835          40.000  
C25  20807235.355   108348737.559       -1219.961          38.000                                                                  
C13  34669830.326   180534909.255         827.008          36.000    34669824.788   139601012.955         640.228          40.000  
C41  21036914.288                        -206.274          20.000                                                                  
C39  33725547.397   175617776.950         157.653          41.000                                                                  
C09  35194954.624   183269362.915         634.178          37.000    35194945.074   141715456.717         490.952          44.000  
C10  37652819.068   196068106.184        -983.877          30.000    37652816.344   151612282.734        -759.549          39.000  
R16  18787757.670   100360830.703        -884.233          42.000    18787759.355    78058425.125        -688.220          35.000  
R09  18301527.497    97729124.553        2728.503          45.000    18301529.342    76011591.088        2122.168          37.000  
R20  21661709.764                       -4128.702          29.000                                                                  
R21  19012861.773   101741664.476       -3144.443          44.000    19012858.776    79132386.443       -2446.284          38.000  
R06  19041470.267   101608933.6882        -78.969          27.000                                                                  
R22  19360786.467   103349372.327         744.636          43.000    19360785.082    80382906.919         579.189          36.000  
J07  34215551.828   179803938.275         -78.301          35.000    34215548.680   140106958.851         -61.946          39.000  
J03  33685296.180   177017442.763         -35.865          44.000    33685295.946   137935661.198         -27.660          40.000  
J02  34894309.318   183370832.4491        -61.187          37.000    34894315.656   142886434.314         -46.896          37.000  
E26  22239914.305   116871540.279       -2391.924          41.000    22239913.190    89550913.499       -1832.644          43.000  
S29  34620139.489   181930060.559         -81.177          40.000  
C08  34436799.408   179321448.243         779.064          34.000    34436785.692   138662664.971         602.732          39.000  
C16  34321099.805   178718969.682         324.458          40.000    34321092.802   138196807.630         250.571          41.000  
R07  19760895.752   105781619.775         986.248          39.000    19760890.331    82274582.493         766.052          39.000  
E33  21500185.678   112984237.3631         70.103          31.000    21500182.958    86572322.934          53.775          37.000  
G18  18778226.289    98680210.783       -1989.299          43.000    18778223.083    76893675.389       -1550.178          43.000  
E29  22041247.632   115827536.950        -847.993          38.000    22041245.762    88750962.376        -650.343          42.000  
G10  20961018.056   110150893.2253       2740.539          32.000    20961017.217    85831856.513        2135.735          36.000  
G28  22172853.109   116519140.457        3300.032          34.000    22172858.955    90794149.9282       2570.587          37.000  
E07  24713270.563                       -1703.345          25.000                                                                  
E19  22223135.008   116783353.449         447.765          36.000    22223128.481    89483331.424         341.232          35.000  
G32  21185870.788   111332497.4352       1106.062          43.000    21185871.996    86752669.804         861.810          38.000  
C06                                                                  33984780.738   136842631.077         397.072          42.000  
E27                                                                  24560039.203                        1068.109          24.000  
E21                                                                  25102998.261   101079368.291        1632.611          28.000  
J04                                                                  37066664.034   151781790.492         327.467          38.000  
> 2025 10 27 01 39 19.9920000  0 37                     
S37  34215562.265   179803992.6353        -69.594          40.000  
G12  21079112.951   110771486.542        1931.592          39.000    21079114.042    86315470.207        1504.530          34.000  
G23  18239403.225    95848711.553        1271.948          43.000    18239398.675    74687291.115         990.702          40.000  
G24  18722898.782                1      -2464.467          30.000    18722897.542                       -1929.460          23.000  
G25  20988927.082   110297560.1702       2828.997          33.000    20988942.740    85946211.0881       2199.634          27.000  
S28  35038131.975   184126625.084         -69.548          42.000  
C25  20807469.392   108349956.508       -1211.676          40.000                                                                  
C13  34669671.242   180534080.680         835.911          39.000    34669665.630   139600372.302         645.952          41.000  
C39  33725516.644   175617617.995         165.479          44.000                                                                  
C09  35194832.388   183268726.229         643.165          39.000    35194822.816   141714964.401         496.998          38.000  
C10  37653007.765   196069088.058        -977.001          36.000    37653004.832   151613042.025        -754.884          37.000  
R16  18787923.096   100361714.822        -876.412          43.000    18787924.503    78059112.927        -683.009          37.000  
R09  18301016.337    97726395.419        2735.083          45.000    18301018.129    76009468.475        2127.808          40.000  
R20  21662480.633   115839018.8363      -4124.635          33.000                                                                  
R21  19013449.045   101744807.821       -3137.561          47.000    19013446.136    79134831.235       -2439.519          36.000  
R06  19041481.492                         -72.195          28.000                                                                  
R22  19360646.584   103348626.664         749.675          43.000    19360645.215    80382326.824         584.062          33.000  
J07  34215566.355   179804014.938         -69.990          36.000    34215563.220   140107018.538         -53.298          38.000  
J03  33685302.846   177017477.494         -28.986          43.000    33685302.186   137935688.269         -21.184          35.000  
J02  34894320.343                1        -54.834          37.000    34894326.462                         -40.695          28.000  
E26  22240369.416   116873930.015       -2384.021          44.000    22240367.496    89552744.604       -1826.571          42.000  
S29  34620154.429   181930139.640         -72.949          45.000  
C08  34436649.275   179320666.950         788.948          39.000    34436635.556   138662060.781         609.992          39.000  
C16  34321037.169   178718643.883         332.680          43.000    34321030.194   138196555.679         257.891          40.000  
R07  19760711.430   105780633.365         993.341          39.000    19760706.045    82273815.275         771.594          39.000  
E33  21500173.240   112984164.624          79.787          34.000    21500168.429    86572267.310          60.638          38.000  
G18  18778604.614    98682198.724       -1981.537          47.000    18778601.210    76895224.544       -1544.916          38.000  
E29  22041408.710   115828383.806        -839.624          43.000    22041406.867    88751611.209        -643.412          44.000  
G10  20960496.230   110148152.2932       2746.202          40.000    20960495.491    85829720.652        2141.070          38.000  
G28  22172225.012   116515840.093        3305.178          40.000    22172227.172    90791562.7601       2575.056          35.000  
E07  24713590.689                       -1695.749          29.000    24713586.835                       -1302.142          26.000  
E19  22223049.928   116782914.8121        453.057          39.000    22223043.734    89482988.967         346.990          38.000  
G32  21185659.651   111331390.5161       1112.404          42.000    21185661.805    86751807.563         867.128          38.000  
C06                                                                  33984681.895   136842233.143         403.304          41.000  
E27                                                                  24559773.368                        1071.379          23.000  
E21                                                                  25102589.334                        1630.897          18.000  
J04                                                                  37066583.579   151781461.014         335.043          40.000  
> 2025 10 27 01 39 20.9920000  0 38                     
S37  34215576.321   179804066.5842        -74.860          39.000  
G12  21078746.377   110769559.980        1925.568          40.000    21078747.472    86313969.001        1499.979          34.000  
G23  18239162.407    95847446.202        1264.762          40.000    18239157.949    74686305.054         986.465          40.000  
G24  18723367.069                       -2466.046          22.000    18723368.577                       -1921.152          25.000  
G25  20988384.740   110294706.1153       2827.215          36.000    20988399.274    85944007.615        2201.791          31.000  
S28  35038146.160   184126699.452         -75.372          45.000  
C25  20807703.123   108351174.476       -1218.848          39.000                                                                  
C13  34669512.006   180533251.354         828.477          41.000    34669506.405   139599731.042         640.644          42.000  
C41  21036998.703                        -203.032          19.000                                                                  
C39  33725485.671   175617457.095         159.759          42.000                                                                  
C09  35194709.572   183268087.086         638.295          42.000    35194700.165   141714470.239         493.101          44.000  
C10  37653195.626   196070067.052        -979.963          36.000    37653192.837   151613799.050        -757.792          42.000  
R16  18788088.389   100362598.280        -883.537          42.000    18788088.494    78059800.099        -686.844          33.000  
R09  18300504.630    97723664.2832       2730.725          41.000    18300506.433    76007343.863        2123.566          39.000  
R20  21663249.282                       -4122.286          28.000                                                                  
R21  19014036.183   101747949.159       -3142.963          48.000    19014033.087    79137274.594       -2445.382          36.000  
R06  19041493.509                         -77.641          28.000                                                                  
R22  19360506.815   103347881.272         744.224          45.000    19360503.860    80381531.6303        579.132          34.000  
J07  34215580.437   179804088.865         -75.147          35.000    34215577.334   140107076.189         -57.950          36.000  
J03  33685308.874   177017509.324         -32.422          38.000    33685308.172   137935713.158         -26.349          38.000  
J02  34894330.766   183370945.6323        -56.371          36.000    34894337.043   142886476.8661        -43.888          32.000  
E26  22240823.031   116876317.158       -2388.567          40.000    22240822.358    89554573.715       -1830.152          42.000  
S29  34620169.159   181930216.485         -77.747          45.000  
C08  34436498.965   179319884.600         780.843          34.000    34436485.335   138661455.842         605.269          37.000  
C16  34320974.168   178718315.891         326.914          43.000    34320967.240   138196302.060         252.589          40.000  
R07  19760527.165   105779647.3922        985.954          40.000    19760521.815    82273048.012         767.219          36.000  
E33  21500155.433   112984091.020          72.326          36.000    21500155.385    86572210.932          54.871          40.000  
G18  18778982.566    98684184.754       -1987.109          46.000    18778979.096    76896772.043       -1548.878          40.000  
E29  22041569.269   115829229.861        -846.469          41.000    22041567.744    88752259.514        -648.805          44.000  
G10  20959973.795   110145411.1192       2741.942          39.000    20959973.860    85827584.831        2135.406          36.000  
G28  22171596.534   116512537.421        3301.165          42.000    22171599.194    90788989.253        2572.355          37.000  
E19  22222965.058   116782467.188         445.828          29.000    22222958.576    89482645.953         342.322          42.000  
G32  21185448.876   111330283.294        1105.920          44.000    21185449.338    86750944.748         862.238          38.000  
E21  25102201.690                        2138.375          21.000    25102198.170                        1636.915          21.000  
C06                                                                  33984582.641   136841833.478         399.056          40.000  
E27                                                                  24559504.740                        1070.634          21.000  
E07                                                                  24713914.041    99512690.3601      -1304.069          32.000  
J04                                                                  37066502.937   151781130.331         330.134          38.000  
> 2025 10 27 01 39 21.9920000  0 38                     
S37  34215590.252   179804139.7352        -72.837          38.000  
G12  21078379.749   110767633.105        1925.016          38.000    21078382.533    86312467.559        1500.174          34.000  
G23  18238921.673    95846180.595        1265.885          41.000    18238917.103    74685318.903         986.204          40.000  
G24  18723846.655                       -2471.399          23.000    18723837.309                       -1920.420          25.000  
G25  20987844.011   110291877.6502       2830.059          36.000    20987849.262    85941803.532        2205.090          32.000  
S28  35038160.149   184126773.074         -72.147          45.000  
C25  20807937.037   108352392.506       -1219.691          40.000                                                                  
C13  34669352.532   180532421.476         829.624          41.000    34669347.029   139599089.336         641.467          42.000  
C39  33725454.564   175617295.521         162.369          42.000                                                                  
C09  35194586.721   183267447.267         641.072          43.000    35194577.299   141713975.484         496.016          42.000  
C10  37653383.378   196071045.038        -976.368          36.000    37653380.687   151614555.291        -754.395          41.000  
R16  18788253.903   100363482.138        -885.021          42.000    18788250.972    78060487.578        -689.000          29.000  
R09  18299993.021    97720932.2782       2732.843          41.000    18299994.551    76005218.962        2125.610          37.000  
R20  21664021.106                       -4121.833          21.000                                                                  
R21  19014623.181   101751090.032       -3139.054          48.000    19014619.994    79139717.490       -2442.148          38.000  
R06  19041508.235                         -75.522          26.000                                                                  
R22  19360367.057   103347136.133         745.268          41.000    19360365.444    80380952.2132        579.925          37.000  
J07  34215594.397   179804162.005         -72.617          35.000    34215591.254   140107133.151         -56.905          38.000  
J03  33685314.788   177017540.319         -28.870          37.000    33685313.947   137935737.257         -22.465          35.000  
J02  34894341.026   183371000.0632        -54.772          35.000    34894346.644   142886519.281         -39.537          33.000  
E26  22241277.152   116878703.641       -2384.751          40.000    22241276.697    89556402.300       -1827.558          41.000  
S29  34620183.650   181930292.592         -74.756          46.000  
C08  34436348.587   179319101.635         782.456          37.000    34436334.993   138660850.487         604.301          40.000  
C16  34320910.988   178717987.249         329.515          42.000    34320904.149   138196047.874         254.997          38.000  
R07  19760342.784   105778660.3802        987.471          41.000    19760337.338    82272280.187         768.381          36.000  
E33  21500142.055   112984017.213          74.532          38.000    21500140.534    86572154.313          56.775          41.000  
G18  18779360.463    98686170.491       -1984.764          46.000    18779357.129    76898319.378       -1546.281          39.000  
E29  22041730.340   115830075.422        -845.902          41.000    22041728.990    88752907.461        -647.788          46.000  
G10  20959452.941   110142669.4822       2744.920          36.000    20959452.157    85825448.545        2135.941          35.000  
E27  24559242.925                        1398.649          22.000    24559244.400                        1079.615          21.000  
G28  22170967.858   116509234.093        3305.391          39.000    22170971.855    90786415.281        2575.586          37.000  
E19  22222872.780   116781983.8101        449.559          36.000    22222873.440    89482302.467         344.507          40.000  
G32  21185238.005   111329175.445        1109.121          42.000    21185238.555    86750081.480         864.982          38.000  
E21  25101796.516                        2133.495          21.000                                                                  
C06                                                                  33984483.272   136841433.172         401.376          41.000  
E07                                                                  24714237.830    99513994.791       -1302.535          30.000  
G15                                                                  20960053.471                       -1646.568          23.000  
J04                                                                  37066422.027   151780798.969         331.877          35.000  
> 2025 10 27 01 39 22.9920000  0 35                     
S37  34215604.089   179804212.9932        -73.120          40.000  
G12  21078013.354   110765707.142        1925.299          39.000    21078017.109    86310966.617        1501.090          30.000  
G23  18238680.817    95844914.960        1265.697          41.000    18238676.397    74684332.688         986.887          40.000  
G24  18724323.846                       -2468.234          22.000    18724308.234                       -1927.214          24.000  
G25  20987305.768   110289049.6022       2826.645          29.000    20987311.057    85939599.759        2204.159          32.000  
S28  35038173.982   184126845.754         -73.296          43.000  
C25  20808171.155   108353611.102       -1218.081          44.000                                                                  
C13  34669192.996   180531590.985         830.854          40.000    34669187.565   139598447.098         642.885          39.000  
C39  33725423.429   175617133.885         161.408          44.000                                                                  
C09  35194463.752   183266807.056         639.242          41.000    35194454.408   141713480.506         494.359          39.000  
C10  37653571.780                        -977.966          28.000    37653568.458   151615311.027        -758.511          35.000  
R16  18788419.626   100364366.946        -883.138          37.000    18788416.278    78061175.752        -687.945          33.000  
R09  18299481.742    97718200.666        2730.463          43.000    18299483.033    76003094.806        2124.304          37.000  
R20  21664793.016                       -4123.597          23.000                                                                  
R21  19015210.185   101754230.585       -3141.610          49.000    19015206.878    79142160.062       -2443.687          35.000  
R22  19360227.226   103346390.417         745.537          44.000    19360225.560    80380371.6181        579.612          36.000  
J07  34215608.387   179804235.297         -73.972          35.000    34215605.191   140107190.250         -57.958          33.000  
J03  33685320.666   177017571.517         -30.220          39.000    33685319.714   137935761.676         -24.918          32.000  
J02  34894351.433   183371054.9452        -55.108          39.000    34894357.027   142886562.044         -42.555          38.000  
E26  22241731.518   116881090.440       -2387.490          42.000    22241730.749    89558231.155       -1829.505          40.000  
S29  34620197.982   181930367.923         -76.031          46.000  
C08  34436198.136   179318318.599         783.426          37.000    34436184.628   138660244.846         605.357          38.000  
C16  34320847.797   178717658.502         328.238          41.000    34320841.046   138195793.677         254.266          40.000  
R07  19760158.094   105777671.396         989.852          39.000    19760152.865    82271511.591         768.958          36.000  
E33  21500128.602   112983943.061          73.512          41.000    21500127.504    86572097.513          56.147          43.000  
G18  18779738.299    98688156.275       -1986.474          46.000    18779734.969    76899866.726       -1547.311          37.000  
E29  22041890.973   115830920.485        -844.337          40.000    22041889.920    88753554.910        -647.526          44.000  
G10  20958931.789   110139926.7862       2743.631          38.000    20958930.188    85823311.323        2137.653          35.000  
E27  24558978.678                        1398.554          22.000    24558976.114                        1073.239          21.000  
G28  22170339.124   116505930.084        3303.009          34.000    22170343.107                1       2574.513          28.000  
E19  22222787.506   116781534.483         448.350          34.000    22222787.762    89481958.173         343.740          38.000  
G32  21185026.883   111328066.8043       1109.864          38.000    21185027.272    86749217.151         864.559          38.000  
C06                                                                  33984383.896   136841032.772         400.015          40.000  
E07                                                                  24714561.469    99515298.300       -1304.236          30.000  
J04                                                                  37066341.151   151780467.552         331.719          37.000  
> 2025 10 27 01 39 23.9920000  0 36                     
S37  34215618.336   179804287.8762        -76.290          40.000  
G12  21077647.341   110763783.295        1921.544          37.000    21077650.664    86309467.757        1496.349          28.000  
G23  18238440.144    95843649.877        1263.013          40.000    18238435.599    74683346.876         985.824          38.000  
G24  18724795.312                       -2473.017          22.000    18724779.649                       -1916.664          22.000  
G25  20986768.115   110286210.5543       2825.376          36.000    20986775.720    85937337.8051       2200.684          31.000  
S28  35038188.028   184126919.556         -74.816          45.000  
C25  20808405.361   108354831.024       -1221.982          41.000                                                                  
C13  34669033.490   180530760.507         828.652          39.000    34669028.022   139597804.896         640.794          37.000  
C39  33725392.609   175616973.471         158.800          42.000                                                                  
C09  35194341.110   183266168.646         636.992          42.000    35194331.792   141712986.702         492.916          43.000  
C10  37653760.997   196073013.8493       -979.666          29.000    37653756.666   151616068.085        -757.426          37.000  
R16  18788585.614   100365253.449        -888.380          37.000    18788582.180    78061865.124        -689.371          29.000  
R09  18298970.742    97715472.136        2727.045          44.000    18298972.068    76000972.568        2120.361          39.000  
R20  21665569.197                       -4116.030          25.000                                                                  
R21  19015797.492   101757373.139       -3143.776          48.000    19015794.149    79144604.275       -2444.941          39.000  
R22  19360087.586   103345645.404         744.874          41.000    19360087.042    80379792.170         578.981          36.000  
J07  34215622.579   179804310.140         -76.695          36.000    34215619.505   140107248.587         -60.127          38.000  
J03  33685326.942   177017604.936         -35.731          38.000    33685325.887   137935787.602         -29.288          36.000  
J02  34894362.284   183371112.1422        -59.680          37.000    34894368.400   142886606.625         -45.213          37.000  
E26  22242186.228   116883479.434       -2391.374          45.000    22242185.408    89560061.632       -1832.081          43.000  
S29  34620212.622   181930444.513         -77.881          46.000  
C08  34436047.810   179317535.671         781.533          37.000    34436034.367   138659639.478         604.116          40.000  
C16  34320784.965   178717331.181         324.959          42.000    34320778.200   138195540.568         252.901          40.000  
R07  19759973.407   105776682.505         990.789          38.000    19759968.105    82270742.330         769.817          38.000  
E33  21500116.377   112983869.953          71.508          42.000    21500113.368    86572041.470          54.668          46.000  
G18  18780116.582    98690144.065       -1989.880          43.000    18780113.183    76901415.570       -1549.897          39.000  
E29  22042051.776   115831765.471        -846.633          39.000    22042050.716    88754202.395        -648.292          43.000  
G10  20958408.543   110137183.6332       2743.506          38.000    20958408.183    85821173.821        2137.048          37.000  
G28  22169710.893   116502627.980        3300.458          36.000    22169714.624    90781274.7981       2571.543          32.000  
E19  22222706.318   116781085.441         448.198          39.000    22222702.376    89481614.027         344.263          38.000  
G32  21184815.947   111326958.0592       1106.840          41.000    21184816.214    86748353.157         864.034          36.000  
C06                                                                  33984284.833   136840633.624         397.734          42.000  
E27                                                                  24558711.719                        1072.945          21.000  
E07                                                                  24714885.356    99516601.274       -1303.737          34.000  
E21                                                                  25100996.985                        1636.433          23.000  
J04                                                                  37066260.254   151780136.669         329.827          38.000  
> 2025 10 27 01 39 24.9920000  0 37                     
S37  34215632.787   179804363.9762        -74.938          40.000  
G12  21077281.532   110761861.884        1922.426          37.000    21077284.883    86307970.399        1498.220          33.000  
G23  18238199.569    95842385.066        1264.426          41.000    18238194.940    74682361.364         986.106          38.000  
G25  20986230.699   110283386.1071       2824.048          41.000    20986237.907                        2200.113          27.000  
S28  35038201.968   184126992.908         -72.855          42.000  
C25  20808639.874   108356052.539       -1221.363          36.000                                                                  
C13  34668873.864   180529929.547         830.609          39.000    34668868.263   139597162.296         643.675          36.000  
C41  21037161.577                        -207.347          21.000                                                                  
C39  33725361.948   175616813.434         159.899          43.000                                                                  
C09  35194218.622   183265530.777         636.994          42.000    35194209.388   141712493.533         493.235          41.000  
C10  37653947.721   196073986.6563       -980.822          30.000    37653945.386                1       -756.012          37.000  
R16  18788751.869   100366141.919        -888.329          34.000    18788748.304    78062555.974        -689.400          28.000  
R09  18298460.208    97712745.789        2726.318          44.000    18298461.498    75998852.204        2118.542          35.000  
R20  21666341.940   115859666.4273      -4126.574          26.000    21666378.107    90113224.2223      -3207.696          29.000  
R21  19016384.853   101760515.967       -3142.469          46.000    19016381.502    79147048.652       -2444.513          42.000  
R06  19041550.773   101609362.8163        -75.175          30.000                                                                  
R22  19359947.871   103344899.531         745.181          40.000    19359945.705    80379211.956         579.628          36.000  
J07  34215637.042   179804386.230         -75.032          36.000    34215633.911   140107307.972         -59.674          36.000  
J03  33685333.576   177017639.917         -35.030          45.000    33685332.495   137935814.836         -27.501          38.000  
J02  34894373.648   183371171.2262        -61.193          35.000    34894380.786   142886655.8071        -44.420          34.000  
E26  22242641.646   116885869.724       -2389.593          44.000    22242640.518    89561893.146       -1831.146          44.000  
S29  34620227.274   181930520.982         -77.118          44.000  
C08  34435897.562   179316752.835         781.900          37.000    34435884.039   138659034.085         603.977          39.000  
C16  34320722.156   178717004.396         327.810          41.000    34320715.421   138195287.900         252.626          41.000  
R07  19759788.258   105775691.916         989.338          37.000    19759782.966    82269971.829         770.866          38.000  
E33  21500101.489   112983796.612          73.738          42.000    21500099.264    86571985.263          56.518          46.000  
G18  18780495.012    98692132.652       -1988.789          47.000    18780491.545    76902965.181       -1549.571          42.000  
E29  22042212.693   115832609.881        -843.567          40.000    22042211.292    88754849.440        -646.562          42.000  
G10  20957885.345   110134438.3601       2744.576          37.000    20957885.771    85819035.006        2138.623          37.000  
G28  22169082.460   116499326.186        3301.631          41.000    22169085.274    90778701.792        2572.448          40.000  
E19  22222625.980   116780634.915         450.954          37.000    22222616.697    89481268.879         345.345          38.000  
G32  21184604.536   111325847.4582       1111.007          44.000    21184604.845    86747487.906         864.425          33.000  
C06                                                                  33984185.836   136840234.768         399.189          40.000  
E27                                                                  24558452.072                        1069.313          20.000  
E07                                                                  24715208.253                       -1302.014          22.000  
G24                                                                  18725251.054                       -1924.496          21.000  
J04                                                                  37066179.509   151779806.086         330.760          40.000  
> 2025 10 27 01 39 25.9920000  0 37                     
S37  34215647.262   179804440.0992        -74.647          40.000  
G12  21076915.890   110759940.476        1921.923          36.000    21076919.119    86306473.354        1496.164          29.000  
G23  18237958.907    95841120.439        1266.366          41.000    18237954.303    74681375.821         986.780          39.000  
G24  18725740.356                       -2469.355          20.000    18725723.769                       -1937.913          19.000  
G25  20985692.565   110280562.241        2823.870          40.000    20985696.894    85932919.8121       2201.534          35.000  
S28  35038216.045   184127066.385         -72.389          40.000  
C25  20808874.520   108357274.384       -1221.077          33.000                                                                  
C13  34668714.211   180529098.466         833.138          39.000    34668708.636   139596519.664         647.667          34.000  
C41  21037201.217                        -199.709          22.000                                                                  
C39  33725331.266   175616653.592         160.903          43.000                                                                  
C09  35194096.188   183264893.086         638.617          41.000    35194086.921   141712000.406         493.269          42.000  
C10  37654136.030   196074967.0762       -978.675          36.000    37654132.642   151617588.8233       -756.113          36.000  
R16  18788918.315   100367031.128        -889.022          33.000    18788916.772    78063238.3063       -691.937          27.000  
R09  18297949.728    97710019.948        2725.940          46.000    18297950.915    75996731.909        2121.838          40.000  
R20  21667112.925                       -4126.136          31.000    21667145.926                       -3209.680          28.000  
R21  19016972.188   101763659.380       -3143.372          44.000    19016968.918    79149493.494       -2444.148          39.000  
R06  19041565.650   101609438.6572        -73.790          30.000                                                                  
R22  19359808.162   103344154.442         745.690          38.000    19359807.213    80378632.511         582.134          33.000  
J07  34215651.355   179804462.357         -74.210          34.000    34215648.342   140107367.201         -58.672          37.000  
J03  33685340.330   177017674.968         -35.110          45.000    33685339.206   137935842.213         -27.087          38.000  
J02  34894384.875   183371230.3512        -59.477          37.000    34894393.070   142886705.873         -45.219          34.000  
E26  22243096.673   116888260.367       -2389.740          45.000    22243095.213    89563724.962       -1830.944          42.000  
S29  34620241.866   181930597.520         -75.208          44.000  
C08  34435747.168   179315969.962         784.695          39.000    34435733.635   138658428.713         605.877          37.000  
C16  34320659.369   178716677.802         328.035          42.000    34320652.738   138195035.393         253.011          41.000  
R07  19759603.313   105774701.135         993.180          34.000    19759598.080    82269201.279         772.084          38.000  
E33  21500087.563   112983723.856          73.679          43.000    21500085.042    86571929.516          57.345          44.000  
G18  18780873.541    98694121.813       -1988.454          46.000    18780870.037    76904515.151       -1550.588          39.000  
E29  22042373.568   115833454.403        -843.116          41.000    22042372.030    88755496.452        -645.903          40.000  
G10  20957363.287   110131693.643        2746.359          37.000    20957363.418    85816896.257        2139.009          39.000  
G28  22168454.172   116496024.618        3302.293          36.000    22168459.131    90776129.130        2571.687          41.000  
E07  24715534.271                       -1703.586          23.000                                                                  
E19  22222535.552   116780184.815         449.381          35.000    22222531.243    89480923.952         345.860          41.000  
G32  21184393.122   111324736.6231       1109.700          37.000    21184393.457    86746622.565         866.817          31.000  
C06                                                                  33984086.893   136839836.211         398.826          41.000  
E27                                                                  24558189.033                        1059.707          20.000  
J04                                                                  37066098.812   151779475.387         331.895          39.000  
> 2025 10 27 01 39 26.9920000  0 38                     
S37  34215661.963   179804517.4062        -74.423          42.000  
G12  21076550.394   110758020.455        1923.260          36.000    21076554.234    86304966.2661       1497.116          29.000  
G23  18237718.546    95839857.692        1265.907          39.000    18237714.021    74680391.910         985.422          39.000  
G25  20985155.965   110277739.319        2825.092          39.000    20985160.798    85930720.255        2202.176          31.000  
S28  35038230.206   184127141.008         -70.921          42.000  
C25  20809109.616   108358498.160       -1219.483          33.000                                                                  
C13  34668554.845   180528268.891         834.741          37.000    34668549.236   139595878.321         644.399          37.000  
C41  21037239.476                        -210.697          22.000                                                                  
C39  33725300.766   175616495.151         162.246          41.000                                                                  
C09  35193974.001   183264256.592         639.490          42.000    35193964.722   141711508.190         494.947          42.000  
C10  37654324.561   196075946.7521       -978.712          34.000    37654322.750   151618353.8072       -751.904          31.000  
R16  18789087.131                1       -893.504          30.000    18789085.688                        -696.555          25.000  
R09  18297439.493    97707295.876        2726.190          45.000    18297440.557    75994613.223        2120.258          39.000  
R20  21667885.248   115867919.0183      -4120.904          31.000    21667913.957                       -3208.450          26.000  
R21  19017559.872   101766804.189       -3141.882          47.000    19017556.612    79151939.570       -2444.121          39.000  
R06  19041583.111                         -73.696          29.000                                                                  
R22  19359668.938   103343411.528         747.803          40.000    19359668.048    80378054.771         581.591          38.000  
J07  34215666.070   179804539.647         -73.573          38.000    34215663.102   140107427.449         -58.095          39.000  
J03  33685347.118   177017711.214         -33.425          46.000    33685346.031   137935870.427         -26.006          36.000  
J02  34894396.348   183371290.6902        -57.395          43.000    34894401.882   142886752.815         -44.695          36.000  
E26  22243552.042   116890652.403       -2389.779          46.000    22243550.494    89565557.888       -1832.435          41.000  
S29  34620256.699   181930675.156         -73.895          43.000  
C08  34435597.061   179315188.560         785.764          42.000    34435583.564   138657824.470         608.256          41.000  
C16  34320596.872   178716352.550         328.392          43.000    34320590.307   138194783.855         254.337          41.000  
R07  19759418.425   105773711.746         994.864          39.000    19759413.279    82268431.782         774.617          38.000  
E33  21500073.950   112983652.832          74.475          41.000    21500071.987    86571875.121          56.446          42.000  
G18  18781252.451    98696112.653       -1987.958          46.000    18781249.030    76906066.478       -1549.398          41.000  
E29  22042534.587   115834300.323        -842.178          41.000    22042532.812    88756144.709        -644.892          40.000  
G10  20956841.330   110128950.373        2748.294          37.000    20956841.358    85814758.542        2142.400          38.000  
G28  22167826.149   116492724.219        3304.179          41.000    22167831.733    90773557.371        2573.859          38.000  
E07  24715860.344   129882721.9871      -1695.504          26.000                                                                  
E19  22222450.666   116779735.878         452.678          35.000    22222445.747    89480580.007         347.113          41.000  
G32  21184182.199   111323627.557        1114.114          44.000    21184182.345    86745758.485         867.404          37.000  
C06                                                                  33983988.221   136839438.553         399.897          42.000  
E27                                                                  24557924.368                        1063.620          21.000  
E21                                                                  25099732.942   101066223.0041       1632.786          27.000  
G24                                                                  18726197.732                       -1939.410          19.000  
J04                                                                  37066018.206   151779145.802         332.119          36.000  
> 2025 10 27 01 39 27.9920000  0 37                     
S37  34215676.777   179804594.0813        -77.549          41.000  
G12  21076185.428   110756102.302        1918.201          36.000    21076187.831                        1494.845          29.000  
G23  18237478.465    95838596.226        1262.989          41.000    18237474.006    74679408.922         984.003          35.000  
G24  18726677.401                       -2472.776          27.000    18726671.470                       -1931.304          22.000  
G25  20984618.687   110274917.874        2823.673          40.000    20984625.545    85928521.818        2199.003          35.000  
S28  35038244.508   184127216.921         -73.380          43.000  
C25  20809346.508   108359727.5693      -1223.735          28.000                                                                  
C13  34668395.770   180527440.263         831.612          40.000    34668390.093   139595237.430         641.553          35.000  
C41  21037283.890                        -213.746          20.000                                                                  
C39  33725270.618   175616338.128         158.970          42.000                                                                  
C09  35193851.978   183263621.688         636.323          41.000    35193842.739   141711017.249         492.714          42.000  
C10  37654513.341                1       -981.496          29.000    37654514.757                        -756.099          36.000  
R16  18789254.387                        -890.934          28.000    18789256.081                        -685.395          24.000  
R09  18296929.706    97704573.662        2723.309          47.000    18296930.636    75992496.005        2117.975          41.000  
R20  21668653.613                       -4121.817          28.000    21668682.936                       -3206.992          26.000  
R21  19018147.852   101769950.884       -3144.329          45.000    19018144.659    79154386.958       -2445.614          37.000  
R06  19041594.914   101609598.4963        -76.301          29.000                                                                  
R22  19359530.002   103342670.345         745.158          42.000    19359529.177    80377478.363         578.348          37.000  
J07  34215680.958   179804618.369         -77.797          38.000    34215677.950   140107488.783         -60.953          37.000  
J03  33685354.297   177017749.016         -35.583          46.000    33685353.136   137935899.922         -28.928          38.000  
J02  34894408.017   183371352.4322        -60.592          39.000    34894414.755   142886800.912         -45.729          33.000  
E26  22244007.173   116893046.126       -2391.690          45.000    22244006.069    89567392.011       -1833.750          42.000  
S29  34620271.629   181930754.121         -77.112          43.000  
C08  34435447.255   179314408.247         780.534          36.000    34435433.675   138657220.987         604.661          40.000  
C16  34320534.804   178716028.793         325.089          41.000    34320528.250   138194533.508         251.885          40.000  
R07  19759234.136   105772726.6453        991.648          36.000    19759228.521    82267662.853         771.740          40.000  
E33  21500060.692   112983583.387          71.730          42.000    21500058.633    86571821.898          54.861          43.000  
G18  18781631.711    98698105.403       -1990.712          45.000    18781628.181    76907619.186       -1550.418          45.000  
E29  22042695.751   115835147.178        -844.630          41.000    22042694.080    88756793.549        -646.658          40.000  
G10  20956319.452   110126207.773        2747.101          34.000    20956319.449    85812621.561        2138.607          37.000  
G28  22167198.437   116489425.387        3302.223          40.000    22167202.300    90770986.876        2573.634          41.000  
E19  22222362.816   116779288.073         451.005          36.000    22222360.355    89480236.906         345.539          40.000  
G32  21183971.454   111322519.664        1109.583          39.000    21183971.387    86744895.175         864.986          37.000  
C06                                                                  33983889.689   136839042.049         397.681          40.000  
E27                                                                  24557658.006                        1070.243          20.000  
E21                                                                  25099325.101                        1634.182          28.000  
J04                                                                  37065937.976   151778816.923         330.291          36.000  
> 2025 10 27 01 39 28.9920000  0 37                     
S37  34215691.414   179804670.9402        -73.440          40.000  
G12  21075820.069   110754182.556        1923.937          37.000    21075823.087                        1497.657          28.000  
G23  18237238.183    95837333.021        1265.918          40.000    18237233.603    74678424.648         985.966          36.000  
G24  18727150.473                       -2475.751          23.000    18727143.603                       -1936.442          24.000  
G25  20984081.155   110272094.859        2826.493          41.000    20984087.236    85926321.924        2201.353          35.000  
S28  35038258.594   184127291.5863        -71.113          42.000  
C25  20809582.051                       -1222.481          29.000                                                                  
C13  34668236.208   180526609.481         833.805          35.000    34668230.610   139594595.110         643.712          31.000  
C41  21037322.144                        -206.397          21.000                                                                  
C39  33725240.162   175616179.347         162.402          42.000                                                                  
C09  35193729.812   183262985.044         639.938          42.000    35193720.514   141710524.936         494.444          44.000  
C10  37654702.964   196077918.9073       -974.805          36.000    37654703.047                        -756.196          30.000  
R16  18789422.453                        -892.426          27.000    18789422.526                        -694.252          21.000  
R09  18296419.709    97701850.207        2727.618          46.000    18296420.577    75990377.743        2120.673          39.000  
R20  21669423.512                       -4125.462          27.000                                                                  
R21  19018735.651   101773096.213       -3142.832          46.000    19018732.427    79156833.312       -2444.121          39.000  
R06  19041610.323                         -76.740          28.000                                                                  
R22  19359390.948                         745.457          40.000    19359390.108    80376900.930         578.926          39.000  
J07  34215695.633   179804695.199         -72.916          36.000    34215692.389   140107548.669         -57.626          38.000  
J03  33685361.174   177017785.250         -32.159          45.000    33685359.918   137935928.061         -25.466          39.000  
J02  34894419.419                         -48.542          34.000    34894430.629                         -48.768          29.000  
E26  22244462.502                       -2389.956          46.000    22244461.448    89569225.089       -1831.174          44.000  
S29  34620286.335   181930832.2983        -73.755          44.000  
C08  34435297.004   179313625.786         785.556          40.000    34435283.466   138656616.051         607.014          41.000  
C16  34320472.313   178715703.327         328.439          41.000    34320465.668   138194281.823         254.257          40.000  
R07  19759049.203   105771736.2872        994.382          39.000    19759043.483    82266892.215         772.824          40.000  
E33  21500047.056   112983512.542          72.381          43.000    21500045.270    86571767.638          55.806          45.000  
G18  18782010.701    98700096.909       -1988.115          45.000    18782007.229    76909171.033       -1549.105          41.000  
E29  22042857.017                        -842.415          42.000    22042855.186    88757440.971        -645.630          41.000  
G10  20955797.254                        2747.849          37.000    20955797.225    85810482.995        2140.211          37.000  
G28  22166570.533                1       3300.830          38.000    22166574.170    90768415.212        2574.496          39.000  
E19  22222277.830   116778857.6751        452.315          34.000    22222274.887    89479892.593         345.177          41.000  
G32  21183760.245                1       1110.027          38.000    21183760.541    86743957.4291        865.977          35.000  
E21  25098930.330                        2129.575          26.000    25098917.323   101062939.3771       1631.093          27.000  
C06                                                                  33983790.954   136838644.243         400.428          40.000  
E27                                                                  24557387.809                        1066.302          20.000  
J04                                                                  37065857.297   151778486.499         333.313          36.000  
> 2025 10 27 01 39 29.9920000  0 37                     
S37  34215706.704   179804751.2742        -76.719          40.000  
G12  21075455.611   110752265.8263       1920.554          37.000    21075456.336    86300470.4651       1494.952          33.000  
G23  18236998.565    95836073.569        1262.190          42.000    18236993.927    74677443.234         983.559          39.000  
G24  18727618.993                       -2478.912          26.000    18727613.684                       -1934.336          24.000  
G25  20983544.862   110269275.313        2821.674          37.000    20983549.572    85924124.714        2200.899          35.000  
S28  35038273.487   184127369.4752        -74.228          42.000  
C25  20809815.406                       -1197.946          27.000                                                                  
C13  34668077.355   180525782.019         829.307          43.000    34668071.823   139593955.319         641.086          37.000  
C41  21037361.614                        -222.415          22.000                                                                  
C39  33725210.392   175616024.268         157.584          43.000                                                                  
C09  35193608.301   183262352.152         637.033          40.000    35193599.024   141710035.652         491.420          41.000  
C10  37654890.866   196078897.2642       -979.158          34.000    37654888.323   151620631.1613       -758.295          37.000  
R16  18789592.162                        -899.158          26.000    18789594.124                        -706.736          21.000  
R09  18295910.548    97699130.842        2723.169          46.000    18295911.280    75988262.674        2118.005          35.000  
R20  21670196.831                       -4130.848          30.000    21670220.823                       -3211.741          25.000  
R21  19019324.223   101776245.770       -3145.704          47.000    19019321.014    79159282.838       -2446.580          39.000  
R06  19041624.357                         -86.519          29.000                                                                  
R22  19359252.633   103341190.0601        739.286          43.000    19359251.704    80376326.897         574.864          36.000  
J07  34215710.927   179804775.541         -76.454          37.000    34215707.728   140107611.205         -58.693          36.000  
J03  33685368.681   177017825.057         -36.208          44.000    33685367.379   137935959.076         -27.661          39.000  
J02  34894442.830   183371534.6613        -63.210          34.000    34894449.217                         -56.432          34.000  
E26  22244918.305                       -2391.666          43.000    22244917.184    89571061.053       -1833.723          43.000  
S29  34620301.755   181930913.1202        -76.978          45.000  
C08  34435147.396   179312846.617         782.298          38.000    34435133.793   138656013.519         604.652          38.000  
C16  34320410.615   178715381.547         325.567          44.000    34320403.789   138194032.979         252.028          41.000  
R07  19758864.877   105770748.8542        988.218          36.000    19758859.038    82266124.211         769.149          38.000  
E33  21500034.614                          69.243          44.000    21500032.493    86571716.368          53.137          46.000  
G18  18782390.440    98702092.572       -1992.544          46.000    18782387.045    76910726.167       -1552.149          41.000  
E29  22043018.095                        -846.583          41.000    22043016.485    88758090.833        -648.848          43.000  
G10  20955275.867                        2744.768          35.000    20955275.583    85808346.901        2137.143          37.000  
G28  22165943.280   116482817.9353       3301.639          38.000    22165946.248    90765844.4511       2573.065          34.000  
E19  22222192.798                         442.507          31.000    22222189.847    89479550.853         344.009          35.000  
G32  21183549.748   111320304.4503       1107.608          41.000    21183551.722                         859.769          28.000  
E21  25098523.606                        2119.828          27.000    25098512.265   101061310.890        1628.252          30.000  
C06                                                                  33983692.848   136838249.323         398.373          42.000  
E27                                                                  24557120.727                        1053.164          20.000  
J04                                                                  37065777.098   151778158.412         331.133          38.000  
> 2025 10 27 01 39 30.9920000  0 37                     
S37  34215720.932   179804826.0292        -80.197          41.000  
G12  21075089.918   110750345.0242       1915.472          35.000    21075092.345    86298972.916        1493.400          30.000  
G23  18236757.903    95834808.945        1259.224          44.000    18236753.293    74676457.813         981.334          41.000  
G24  18728080.832    98416728.3933      -2476.600          27.000    18728084.077                       -1933.422          24.000  
G25  20983007.452   110266449.930        2819.457          37.000    20983012.173    85921923.294        2196.782          31.000  
S28  35038287.395   184127441.9512        -78.107          46.000  
C13  34667917.296   180524949.177         827.987          41.000    34667911.926   139593311.299         639.524          42.000  
C41  21037400.415                        -208.708          24.000                                                                  
C39  33725179.470   175615863.846         155.489          43.000                                                                  
C09  35193485.814   183261714.089         633.042          41.000    35193476.433   141709542.158         489.579          43.000  
C10  37655078.426   196079874.8972       -981.109          36.000    37655075.840   151621386.1443       -762.039          34.000  
R16  18789767.563                        -889.613          24.000    18789762.551                        -692.857          19.000  
R09  18295400.392    97696406.328        2719.470          44.000    18295401.058    75986143.576        2116.119          34.000  
R20  21670966.266                       -4119.613          23.000    21670989.734                       -3209.222          25.000  
R21  19019911.836   101779390.185       -3150.743          50.000    19019908.559    79161728.540       -2449.978          34.000  
R06  19041640.190   101609840.2163        -78.426          29.000                                                                  
R22  19359113.456   103340447.534         736.523          44.000    19359112.540    80375749.371         572.224          36.000  
J07  34215725.180   179804850.310         -80.085          37.000    34215721.919   140107669.477         -61.429          40.000  
J03  33685375.376   177017859.373         -39.673          43.000    33685373.830   137935985.783         -30.120          39.000  
J02  34894450.190                         -64.614          30.000    34894460.111                         -45.984          29.000  
E26  22245372.880   116900225.6081      -2396.877          44.000    22245372.034    89572893.016       -1835.879          42.000  
S29  34620316.163   181930988.5062        -80.463          44.000  
C08  34434996.828   179312062.181         779.831          40.000    34434983.154   138655406.919         604.282          38.000  
C16  34320347.771   178715054.509         321.791          44.000    34320340.950   138193780.131         249.597          41.000  
R07  19758679.368   105769757.0293        987.504          41.000    19758673.593    82265352.000         767.302          37.000  
E33  21500020.874   112983374.0241         65.584          44.000    21500018.572    86571661.426          50.994          45.000  
G18  18782769.314    98704083.364       -1996.470          45.000    18782765.855    76912277.431       -1555.982          41.000  
E29  22043178.155   115837682.9571       -847.553          40.000    22043177.048    88758736.552        -649.796          43.000  
G10  20954753.283   110117975.9173       2741.709          42.000    20954752.892    85806206.682        2134.742          34.000  
G28  22165315.139   116479516.9823       3294.982          39.000    22165317.601    90763271.798        2566.221          32.000  
E07  24717151.257   129889506.5361      -1703.865          30.000                                                                  
E19  22222104.401   116777946.7751        445.106          39.000    22222104.033    89479205.332         340.647          39.000  
G32  21183338.177   111319192.6121       1107.000          44.000    21183337.300    86742224.7881        861.806          32.000  
E21  25098108.360   131891449.0591       2126.203          28.000    25098106.858                        1628.085          28.000  
C06                                                                  33983593.775   136837850.372         394.949          43.000  
E27                                                                  24556852.687                        1057.203          20.000  
J04                                                                  37065696.023   151777826.161         328.263          37.000  
> 2025 10 27 01 39 31.9920000  0 38                     
S37  34215735.315   179804901.5002        -75.370          39.000  
G12  21074724.339   110748424.2912       1920.392          35.000    21074727.616    86297486.3011       1497.247          30.000  
G23  18236517.422    95833545.395        1263.495          43.000    18236512.960    74675473.237         984.073          43.000  
G24  18728546.857    98419177.6222      -2472.772          30.000    18728556.187                       -1934.188          25.000  
G25  20982470.132                1       2827.593          30.000    20982475.008                        2206.896          25.000  
S28  35038301.226   184127514.8442        -71.912          45.000  
C25  20810294.092                       -1223.705          22.000                                                                  
C13  34667757.447   180524117.021         832.216          41.000    34667752.075   139592667.754         644.063          41.000  
C41  21037441.252   109547476.7843       -210.767          25.000                                                                  
C39  33725148.723   175615704.273         159.543          44.000                                                                  
C09  35193363.534   183261076.689         638.440          40.000    35193354.038   141709049.270         492.950          43.000  
C10  37655267.224                        -974.211          27.000    37655264.612   151622140.4332       -741.240          32.000  
R16  18789950.632                        -881.559          25.000    18789930.323                        -692.094          19.000  
R09  18294890.418    97693683.150        2724.103          42.000    18294891.109    75984025.644        2118.024          39.000  
R20  21671740.009                       -4119.050          23.000    21671758.099                       -3206.286          26.000  
R21  19020499.592   101782535.565       -3144.906          44.000    19020496.254    79164174.942       -2444.949          35.000  
R06  19041654.685   101609914.8182        -75.085          30.000                                                                  
R22  19358974.432   103339706.273         741.237          44.000    19358973.655    80375172.903         576.999          37.000  
J07  34215739.504   179804925.740         -75.098          34.000    34215736.279   140107728.265         -58.367          39.000  
J03  33685382.032   177017894.450         -34.642          41.000    33685380.478   137936013.199         -27.445          36.000  
E26  22245828.023   116902617.379       -2391.248          45.000    22245827.213    89574725.727       -1832.216          41.000  
S29  34620330.577   181931064.4792        -75.360          44.000  
C08  34434846.319   179311278.461         783.641          40.000    34434832.643   138654800.977         605.718          40.000  
C16  34320285.061   178714728.195         326.849          44.000    34320278.302   138193527.852         252.394          41.000  
R07  19758493.949   105768764.7312        993.547          45.000    19758488.207    82264580.162         772.763          37.000  
E33  21500007.238   112983303.358          70.712          44.000    21500005.042    86571607.314          54.627          45.000  
G18  18783148.232    98706075.248       -1990.959          45.000    18783144.834    76913829.457       -1551.706          42.000  
E29  22043338.411   115838526.498        -843.611          41.000    22043337.177    88759382.918        -646.135          41.000  
G10  20954230.944   110115229.8792       2747.227          46.000    20954230.256    85804067.008        2139.678          35.000  
G28  22164686.897   116476215.8402       3302.525          34.000    22164689.068    90760696.5151       2574.270          35.000  
E07  24717474.380                       -1700.694          24.000                                                                  
E19  22222024.678   116777496.229         452.375          37.000    22222018.438    89478860.105         346.031          37.000  
G32  21183126.765   111318082.007        1112.420          42.000    21183128.905    86741359.245         866.542          37.000  
E21  25097705.368                        2135.631          26.000    25097705.159   101058058.4301       1633.620          28.000  
C06                                                                  33983494.851   136837451.996         398.296          43.000  
E27                                                                  24556586.576                        1083.755          19.000  
J02                                                                  34894467.401   142887010.2731        -39.737          36.000  
J04                                                                  37065615.016   151777494.339         332.097          37.000  
> 2025 10 27 01 39 32.9920000  0 37                     
S37  34215749.451   179804975.7462        -74.529          41.000  
G12  21074358.310                        1921.429          37.000    21074359.268    86295978.011        1497.882          34.000  
G23  18236276.907    95832281.182        1261.925          41.000    18236272.314    74674488.200         984.166          40.000  
G24  18729014.383    98421651.4422      -2476.274          31.000    18729024.973    76692225.8011      -1928.120          27.000  
G25  20981933.428   110260803.7793       2826.427          39.000    20981936.544    85917522.6101       2201.389          30.000  
S28  35038314.766   184127586.4822        -73.103          44.000  
C25  20810529.345                       -1228.974          23.000                                                                  
C13  34667597.562   180523283.879         830.967          41.000    34667592.120   139592023.513         643.140          37.000  
C41  21037481.479                        -208.343          25.000                                                                  
C39  33725117.876   175615543.615         159.776          45.000                                                                  
C09  35193240.940   183260437.960         638.115          41.000    35193231.372   141708555.404         492.978          40.000  
C10  37655454.333   196081831.8113       -973.020          40.000    37655451.811   151622900.2083       -754.613          35.000  
R16  18790122.278                        -888.502          23.000    18790098.573                        -685.976          18.000  
R09  18294380.270    97690959.212        2723.492          45.000    18294380.984    75981907.007        2117.932          39.000  
R20  21672516.856                       -4117.940          25.000    21672528.532                       -3204.051          25.000  
R21  19021087.214   101785680.015       -3145.604          47.000    19021083.946    79166620.583       -2445.801          33.000  
R06  19041669.959   101609988.488         -73.662          30.000                                                                  
R22  19358835.404   103338964.817         739.681          42.000    19358834.617    80374596.076         574.667          37.000  
J07  34215753.640   179805000.015         -74.202          36.000    34215750.416   140107786.202         -58.973          40.000  
J03  33685388.444   177017928.555         -34.038          45.000    33685386.817   137936039.733         -27.705          40.000  
J02  34894478.761                         -48.268          35.000    34894476.352                         -42.512          28.000  
E26  22246283.193   116905008.325       -2391.677          44.000    22246282.363    89576557.736       -1832.319          43.000  
S29  34620344.642   181931139.0562        -75.641          43.000  
C08  34434695.585   179310493.663         783.280          40.000    34434681.976   138654194.116         605.640          41.000  
C16  34320222.166   178714400.849         325.677          44.000    34320215.460   138193274.643         252.372          42.000  
R07  19758308.352   105767771.276         992.077          44.000    19758302.615    82263807.468         771.428          40.000  
E33  21499993.637   112983231.906          70.010          44.000    21499991.651    86571552.549          53.055          45.000  
G18  18783527.216    98708066.364       -1992.341          46.000    18783523.801    76915380.991       -1552.960          40.000  
E29  22043498.972   115839369.041        -844.126          43.000    22043497.509    88760028.558        -646.695          44.000  
G10  20953708.295   110112482.9602       2745.604          40.000    20953707.564    85801926.508        2139.507          34.000  
G28  22164058.648   116472913.8832       3301.952          41.000    22164058.436    90758113.661        2571.389          32.000  
E19  22221932.250   116777044.856         449.638          37.000    22221932.541    89478514.257         344.432          38.000  
G32  21182915.204   111316970.164        1110.408          42.000    21182915.448    86740492.918         866.612          32.000  
E21  25097297.843                        2132.153          26.000    25097310.599   101056469.268        1638.766          33.000  
C06                                                                  33983395.649   136837052.708         398.729          41.000  
E27                                                                  24556320.070                        1079.910          17.000  
J04                                                                  37065533.754   151777161.632         330.912          30.000  
> 2025 10 27 01 39 33.9920000  0 37                     
S37  34215763.603   179805050.1422        -73.503          40.000  
G12  21073992.009   110744574.7453       1922.997          33.000    21073997.983    86294498.1171       1496.665          30.000  
G23  18236036.484    95831017.793        1265.249          41.000    18236031.853    74673503.637         984.569          40.000  
G24  18729485.797    98424126.0242      -2472.545          31.000    18729490.343    76694154.091       -1926.378          27.000  
G25  20981394.008   110257978.0192       2826.911          38.000    20981400.189    85915320.586        2203.147          34.000  
S28  35038328.408   184127658.0832        -71.385          40.000  
C25  20810772.085                       -1227.529          22.000                                                                  
C13  34667437.756   180522451.248         834.065          41.000    34667432.285   139591379.738         644.291          37.000  
C41  21037514.072                        -204.987          26.000                                                                  
C39  33725087.304   175615383.342         161.168          45.000                                                                  
C09  35193118.348   183259799.543         638.399          38.000    35193108.743   141708061.717         493.247          41.000  
C10  37655639.656   196082808.3452       -974.099          38.000    37655640.465   151623653.3402       -753.646          36.000  
R16  18790292.444                        -898.891          22.000    18790267.996                        -700.031          19.000  
R09  18293870.360    97688235.861        2723.730          45.000    18293870.881    75979788.829        2118.628          38.000  
R20  21673296.240                       -4116.771          30.000                                                                  
R21  19021675.021   101788824.928       -3144.675          48.000    19021671.508    79169066.571       -2444.982          35.000  
R06  19041683.361   101610062.830         -71.717          28.000                                                                  
R22  19358696.627   103338224.429         741.097          43.000    19358695.776    80374020.259         576.894          37.000  
J07  34215767.789   179805074.419         -73.545          38.000    34215764.624   140107844.124         -57.390          40.000  
J03  33685395.036   177017962.629         -32.835          44.000    33685393.083   137936066.239         -25.018          41.000  
J02  34894495.505                         -57.861          29.000    34894488.680                         -40.698          28.000  
E26  22246738.232   116907399.426       -2389.696          45.000    22246737.176    89578389.861       -1830.951          43.000  
S29  34620358.741   181931213.7472        -73.682          45.000  
C08  34434544.899   179309709.410         785.646          40.000    34434531.379   138653587.685         607.521          40.000  
C16  34320159.394   178714073.774         328.297          45.000    34320152.658   138193021.756         253.821          41.000  
R07  19758122.806   105766778.225         994.201          45.000    19758117.085    82263035.108         772.934          39.000  
E33  21499980.149   112983161.232          72.198          45.000    21499977.987    86571498.437          55.018          45.000  
G18  18783906.193    98710058.024       -1990.547          46.000    18783902.842    76916932.948       -1551.124          42.000  
E29  22043659.347   115840212.125        -841.380          42.000    22043657.833    88760674.531        -645.085          42.000  
G10  20953185.675   110109736.6132       2746.869          40.000    20953184.977    85799786.531        2140.751          34.000  
G28  22163430.271   116469611.6612       3302.477          39.000    22163432.879    90755540.374        2573.026          32.000  
E19  22221848.593   116776593.782         451.183          37.000    22221846.481    89478168.576         346.345          39.000  
G32  21182703.772   111315858.857        1110.528          42.000    21182704.861    86739626.921         865.569          35.000  
E21  25096877.883   131884982.4581       2134.771          28.000    25096904.616   101054830.188        1640.200          34.000  
C06                                                                  33983296.553   136836653.625         399.617          41.000  
E27                                                                  24556054.360                        1079.996          15.000  
J04                                                                  37065452.772   151776829.219         334.023          30.000  
> 2025 10 27 01 39 34.9920000  0 37                     
S37  34215777.979   179805125.2162        -74.753          41.000  
G12  21073627.568   110742654.0652       1921.667          35.000    21073628.172                        1493.743          24.000  
G23  18235796.358    95829755.574        1262.386          44.000    18235791.744    74672520.148         983.235          40.000  
G24  18729956.021    98426602.0432      -2475.237          37.000    18729956.589    76696083.453       -1928.981          31.000  
G25  20980857.428   110255152.7142       2825.949          37.000    20980861.610    85913119.130        2202.343          34.000  
S28  35038342.207   184127730.3083        -71.452          40.000  
C25  20811005.409                       -1223.683          22.000                                                                  
C13  34667277.947   180521619.496         832.541          41.000    34667272.570   139590736.600         642.956          40.000  
C41  21037548.621   109548063.9353       -206.288          30.000                                                                  
C39  33725056.835   175615224.135         160.054          44.000                                                                  
C09  35192995.772   183259162.068         637.946          42.000    35192986.310   141707568.711         494.022          40.000  
C10  37655827.641   196083775.5143       -976.810          38.000    37655829.510   151624421.4013       -753.663          40.000  
R16  18790464.850                        -895.820          23.000    18790438.217                        -704.086          18.000  
R09  18293360.649    97685513.598        2721.979          45.000    18293360.988    75977671.446        2118.036          39.000  
R20  21674069.563                       -4120.625          26.000                                                                  
R21  19022263.120   101791971.391       -3146.344          46.000    19022259.306    79171513.864       -2445.986          39.000  
R06  19041698.566   101610152.0123        -74.947          29.000                                                                  
R22  19358558.246   103337486.107         739.865          42.000    19358557.474    80373446.050         575.031          37.000  
J07  34215781.971   179805149.505         -74.775          38.000    34215778.866   140107902.647         -57.673          41.000  
J03  33685401.547   177017997.514         -34.693          45.000    33685399.735   137936093.471         -27.032          41.000  
J02  34894490.628                         -57.129          35.000    34894497.246   142887132.7831        -49.191          29.000  
E26  22247193.099   116909791.620       -2391.405          45.000    22247192.160    89580222.898       -1831.800          41.000  
S29  34620373.251   181931289.4672        -74.512          45.000  
C08  34434394.461   179308926.097         784.252          38.000    34434380.931   138652981.919         606.882          40.000  
C16  34320096.789   178713747.714         326.865          44.000    34320090.075   138192769.640         252.623          39.000  
R07  19757937.575   105765786.272         994.030          44.000    19757931.712    82262263.605         772.148          38.000  
E33  21499966.904   112983092.214          70.723          43.000    21499964.962    86571445.545          53.775          45.000  
G18  18784285.525    98712051.246       -1992.215          44.000    18784282.072    76918486.116       -1551.609          41.000  
E29  22043820.097   115841056.183        -843.088          44.000    22043818.559    88761321.250        -646.668          42.000  
G10  20952663.233   110106991.2892       2746.837          42.000    20952662.604    85797647.308        2140.185          38.000  
G28  22162802.042   116466310.6822       3302.766          30.000    22162806.580    90752968.414        2570.825          32.000  
E19  22221761.421   116776144.015         450.365          39.000    22221760.898    89477823.973         345.689          39.000  
G32  21182492.554   111314748.810        1110.284          36.000    21182493.539    86738761.898         864.386          34.000  
E21  25096484.016                        2143.115          27.000    25096498.107   101053191.974        1639.315          35.000  
C06                                                                  33983197.706   136836255.356         399.352          40.000  
E27                                                                  24555787.356                        1069.865          17.000  
J04                                                                  37065371.742   151776497.367         333.107          31.000  
> 2025 10 27 01 39 35.9920000  0 37                     
S37  34215791.877   179805198.816         -73.555          41.000  
G12  21073262.283   110740732.1192       1922.584          35.000    21073258.871    86291471.8491       1497.626          31.000  
G23  18235555.904    95828492.146        1263.546          41.000    18235551.303    74671535.607         984.854          40.000  
G24  18730427.534    98429076.6892      -2475.449          39.000    18730427.759    76698011.722       -1927.889          33.000  
G25  20980321.688   110252326.1182       2827.656          39.000    20980324.085    85910919.5871       2203.406          33.000  
S28  35038355.907   184127801.9762        -71.300          37.000  
C25  20811243.791                       -1218.738          21.000                                                                  
C13  34667117.955   180520786.283         833.636          42.000    34667112.576   139590092.178         645.725          36.000  
C41  21037588.693   109548270.2262       -206.029          35.000                                                                  
C39  33725026.093   175615063.715         160.913          46.000                                                                  
C09  35192873.174   183258523.630         639.505          41.000    35192863.700   141707075.026         493.381          41.000  
C10  37656017.086                        -982.861          29.000    37656013.590   151625162.3352       -752.269          29.000  
R16  18790633.940                        -897.991          22.000    18790607.850                        -693.553          18.000  
R09  18292850.727    97682790.389        2722.943          46.000    18292850.971    75975553.442        2119.257          40.000  
R20  21674841.918                       -4110.400          25.000                                                                  
R21  19022851.047   101795117.203       -3144.905          49.000    19022847.168    79173960.634       -2446.082          39.000  
R06  19041712.516   101610225.2952        -72.278          30.000                                                                  
R22  19358419.863   103336747.553         738.446          44.000    19358419.031    80372871.606         575.309          35.000  
J07  34215796.017   179805223.113         -73.577          37.000    34215792.821   140107960.009         -58.616          39.000  
J03  33685407.938   177018031.110         -33.519          45.000    33685406.132   137936119.660         -26.465          41.000  
J02  34894511.753                         -56.464          30.000    34894509.035                         -36.171          32.000  
E26  22247648.228   116912182.912       -2390.928          43.000    22247647.218    89582055.141       -1832.757          44.000  
S29  34620387.464   181931364.1302        -74.371          44.000  
C08  34434243.724   179308141.096         785.040          41.000    34434230.193   138652374.919         607.660          41.000  
C16  34320033.902   178713420.604         327.017          43.000    34320027.282   138192516.665         252.958          41.000  
R07  19757751.994   105764793.049         994.419          43.000    19757746.293    82261491.036         774.434          35.000  
E33  21499953.825   112983022.445          71.264          44.000    21499951.638    86571392.092          53.432          44.000  
G18  18784664.608    98714043.822       -1992.273          45.000    18784661.342    76920038.815       -1552.531          40.000  
E29  22043980.572   115841898.735        -841.818          42.000    22043978.682    88761966.847        -645.253          40.000  
G10  20952140.646   110104244.5772       2748.646          44.000    20952139.851    85795507.021        2141.552          36.000  
G28  22162174.316   116463011.2823       3301.793          36.000    22162180.368    90750395.551        2574.669          37.000  
E19  22221676.118   116775693.233         451.837          38.000    22221675.105    89477478.626         345.836          39.000  
G32  21182281.147   111313637.930        1110.038          36.000    21182283.115    86737896.273         867.011          30.000  
E21  25096076.635   131880772.7271       2135.847          27.000    25096090.079   101051552.732        1640.599          32.000  
C06                                                                  33983098.622   136835856.282         398.917          41.000  
E27                                                                  24555519.854                        1071.523          18.000  
J04                                                                  37065290.395   151776164.122         334.633          31.000  
> 2025 10 27 01 39 36.9920000  0 38                     
S37  34215805.681   179805271.087         -73.576          42.000  
G12  21072895.460   110738808.7801       1918.856          35.000    21072895.946                        1498.427          25.000  
G23  18235315.215    95827228.036        1262.429          39.000    18235310.718    74670550.595         983.201          40.000  
G24  18730898.041    98431550.962       -2476.452          39.000    18730895.140    76699939.700       -1929.694          34.000  
G25  20979781.817   110249498.100        2827.282          41.000    20979782.905    85908715.911        2204.312          33.000  
S28  35038369.333   184127872.120         -70.882          37.000  
C25  20811485.505                       -1235.049          20.000                                                                  
C13  34666957.795   180519952.041         833.788          40.000    34666952.362   139589447.127         644.363          38.000  
C41  21037626.412   109548475.7212       -206.263          34.000                                                                  
C39  33724994.981   175614902.154         160.169          43.000                                                                  
C09  35192750.258   183257883.684         638.629          41.000    35192740.823   141706580.208         495.103          44.000  
C10  37656203.148   196085731.4863       -973.029          38.000    37656201.225   151625913.6642       -751.420          29.000  
R16  18790804.341                        -894.150          21.000    18790777.392                        -696.229          17.000  
R09  18292340.593    97680066.360        2722.168          47.000    18292340.741    75973434.711        2117.841          38.000  
R20  21675614.174                       -4116.632          24.000                                                                  
R21  19023438.711   101798261.762       -3145.300          46.000    19023434.774    79176406.377       -2445.952          40.000  
R06  19041727.802   101610297.897         -73.750          30.000                                                                  
R22  19358281.369   103336008.489         738.000          43.000    19358280.634    80372296.784         574.825          37.000  
J07  34215809.775   179805295.357         -73.837          37.000    34215806.629   140108016.285         -57.435          41.000  
J03  33685414.102   177018063.355         -32.897          44.000    33685412.239   137936144.697         -25.167          42.000  
J02  34894510.065   183371887.4863        -54.477          39.000    34894518.428   142887218.9311        -40.927          38.000  
E26  22248103.050   116914572.782       -2390.766          42.000    22248102.029    89583886.347       -1831.952          45.000  
S29  34620401.242   181931437.163         -73.480          46.000  
C08  34434092.921   179307355.243         784.271          41.000    34434079.250   138651767.235         606.791          43.000  
C16  34319970.739   178713092.102         327.410          44.000    34319964.181   138192262.705         252.918          40.000  
R07  19757566.108   105763798.663         993.731          41.000    19757560.524    82260717.690         773.796          37.000  
E33  21499940.232   112982951.861          69.411          43.000    21499938.167    86571337.934          53.566          45.000  
G18  18785043.577    98716035.403       -1992.584          46.000    18785040.375    76921590.672       -1553.280          40.000  
E29  22044140.413   115842740.336        -843.042          41.000    22044138.836    88762611.697        -645.766          42.000  
G10  20951617.972   110101496.463        2747.225          44.000    20951616.991    85793365.973        2140.874          37.000  
G28  22161546.291   116459711.2122       3300.856          33.000    22161549.103    90747821.824        2573.772          41.000  
E19  22221591.661   116775241.319         452.093          36.000    22221589.036    89477132.341         346.287          39.000  
G32  21182069.476   111312525.848        1110.059          35.000    21182071.465    86737029.655         866.677          29.000  
E21  25095680.421                        2140.413          25.000    25095680.515   101049912.662        1639.008          32.000  
C06                                                                  33982999.238   136835456.049         399.935          42.000  
E27                                                                  24555253.310                        1074.772          20.000  
E07                                                                  24719092.584                       -1306.599          25.000  
J04                                                                  37065208.887   151775830.081         333.097          24.000  
> 2025 10 27 01 39 37.9920000  0 36                     
S37  34215819.631   179805344.226         -71.549          40.000  
G12  21072529.951   110736887.434        1924.603          33.000    21072532.427    86288497.3641       1498.171          29.000  
G23  18235074.781    95825964.814        1263.699          43.000    18235070.257    74669566.256         984.289          41.000  
G24  18731369.051    98434026.438       -2475.099          43.000    18731368.035    76701868.602       -1928.432          36.000  
G25  20979243.871   110246671.099        2828.188          39.000    20979245.119    85906513.058        2205.195          33.000  
S28  35038382.662   184127942.277         -70.028          31.000  
C13  34666797.678   180519118.165         834.336          42.000    34666792.275   139588802.367         644.608          40.000  
C41  21037666.799   109548682.0492       -205.653          37.000                                                                  
C39  33724964.105   175614741.246         161.332          44.000                                                                  
C09  35192627.569   183257244.263         640.334          42.000    35192618.062   141706085.834         495.688          42.000  
C10  37656392.202   196086715.4133       -973.580          29.000    37656387.607                        -725.119          29.000  
R16  18790973.764                        -893.186          21.000    18790947.042                        -702.457          17.000  
R09  18291830.847    97677343.933        2723.108          47.000    18291830.816    75971317.326        2117.499          39.000  
R21  19024026.460   101801406.880       -3144.851          47.000    19024022.559    79178852.537       -2446.432          39.000  
R06  19041741.437   101610371.028         -71.725          29.000                                                                  
R22  19358143.015   103335269.860         738.646          39.000    19358142.206    80371722.336         573.008          34.000  
J07  34215823.659   179805368.488         -71.450          38.000    34215820.547   140108073.288         -56.324          40.000  
J03  33685420.398   177018096.609         -32.381          44.000    33685418.646   137936170.688         -24.989          40.000  
J02  34894518.876   183371943.5492        -54.955          43.000    34894527.589                         -43.181          36.000  
E26  22248558.298   116916963.738       -2388.969          42.000    22248557.134    89585718.388       -1830.073          44.000  
S29  34620415.144   181931510.402         -71.857          44.000  
C08  34433942.112   179306570.012         786.331          39.000    34433928.429   138651160.051         608.334          39.000  
C16  34319907.761   178712764.417         329.265          43.000    34319901.267   138192009.282         254.509          41.000  
R07  19757380.261   105762804.098         992.915          37.000    19757374.705    82259944.040         772.776          32.000  
E33  21499926.540   112982881.762          70.557          43.000    21499925.046    86571284.202          54.350          46.000  
G18  18785422.773    98718027.872       -1991.703          44.000    18785419.554    76923143.221       -1552.051          44.000  
E29  22044300.409   115843582.320        -840.768          41.000    22044298.989    88763256.821        -645.027          38.000  
G10  20951095.153   110098748.678        2746.810          41.000    20951094.063    85791224.829        2141.327          34.000  
G28  22160915.942   116456408.3222       3302.189          39.000    22160919.772    90745248.173        2572.847          45.000  
E19  22221505.171   116774789.280         452.145          39.000    22221503.027    89476785.879         346.649          38.000  
G32  21181857.831   111311413.366        1111.002          30.000    21181860.643    86736162.785         866.763          27.000  
E21  25095276.085                        2136.127          25.000    25095275.698   101048275.8201       1640.558          28.000  
C06                                                                  33982899.981   136835056.418         400.281          42.000  
E27                                                                  24554984.024                        1067.912          24.000  
E07                                                                  24719419.201                       -1303.879          24.000  
J04                                                                  37065129.977                         335.857          25.000  
> 2025 10 27 01 39 38.9920000  0 34                     
S37  34215833.611   179805417.678         -72.359          40.000  
G12  21072162.852   110734966.798        1922.953          38.000    21072164.595    86286990.7571       1496.805          34.000  
G23  18234834.568    95824702.282        1263.098          43.000    18234830.081    74668582.506         984.144          41.000  
G24  18731840.323    98436502.812       -2475.748          42.000    18731839.255    76703798.314       -1929.637          39.000  
G25  20978705.086   110243844.274        2827.504          39.000    20978711.249                        2201.284          34.000  
C13  34666637.486   180518284.672         833.580          41.000    34666632.305   139588157.844         644.388          40.000  
C41  21037705.503   109548888.868        -206.206          39.000                                                                  
C39  33724933.235   175614580.737         160.825          45.000                                                                  
C09  35192504.792   183256605.276         638.851          39.000    35192495.402   141705591.734         494.463          43.000  
C10  37656578.268                        -972.736          35.000    37656574.546   151627420.6583       -753.245          37.000  
R16  18791144.865                        -907.510          22.000    18791119.123                        -695.610          19.000  
R09  18291321.210    97674622.274        2723.431          43.000    18291321.038    75969200.489        2118.439          39.000  
R21  19024614.337   101804552.681       -3146.213          48.000    19024610.349    79181299.238       -2445.710          32.000  
R06  19041755.337   101610444.703         -74.232          29.000                                                                  
R22  19358004.874   103334532.625         735.448          37.000    19358004.043    80371148.996         570.893          33.000  
J07  34215837.616   179805441.948         -71.849          35.000    34215834.542   140108130.570         -56.816          39.000  
J03  33685426.747   177018130.190         -32.219          44.000    33685425.060   137936196.822         -25.313          38.000  
J02  34894532.945   183371998.1592        -53.914          35.000    34894538.438                         -39.928          30.000  
E26  22249013.023   116919355.290       -2390.500          43.000    22249012.406    89587550.848       -1832.023          44.000  
S29  34620429.169   181931584.029         -73.938          43.000  
C08  34433791.353   179305785.108         786.127          38.000    34433777.735   138650553.241         607.012          39.000  
C16  34319844.909   178712437.074         328.048          44.000    34319838.366   138191756.197         253.613          40.000  
R07  19757194.527   105761809.945         991.083          36.000    19757188.970    82259170.922         772.421          25.000  
E33  21499913.710   112982812.526          69.020          44.000    21499911.716    86571231.240          52.792          45.000  
G18  18785802.092    98720021.163       -1993.071          45.000    18785798.913    76924696.481       -1552.933          42.000  
E29  22044460.588   115844424.795        -842.355          43.000    22044459.091    88763902.390        -645.321          41.000  
G10  20950572.424   110096001.390        2746.083          38.000    20950571.347    85789084.159        2139.176          32.000  
G28  22160287.180   116453105.9352       3302.571          44.000    22160292.602    90742674.965        2573.777          36.000  
E19  22221418.665   116774337.691         450.532          37.000    22221416.987    89476439.913         345.280          39.000  
G32  21181646.922   111310305.3063       1111.510          31.000    21181649.310    86735312.4461        866.854          29.000  
E21  25094865.946                        2138.000          26.000    25094865.476                        1645.675          28.000  
C06                                                                  33982800.865   136834657.146         399.618          43.000  
E27                                                                  24554719.772                        1077.591          23.000  
J04                                                                  37065046.738                         335.847          26.000  
